{"type": "FeatureCollection", "features": [{"type": "Feature", "properties": {"line": "\u5730\u94c11\u53f7\u7ebf", "station": "\u8398\u5e84", "stationNum": "1", "gaodeID": "BV10025001", "isRunning": 1}, "geometry": {"type": "Point", "coordinates": [121.385373, 31.111152]}}, {"type": "Feature", "properties": {"line": "\u5730\u94c11\u53f7\u7ebf", "station": "\u5916\u73af\u8def", "stationNum": "2", "gaodeID": "BV10039895", "isRunning": 1}, "geometry": {"type": "Point", "coordinates": [121.39302, 31.120899]}}, {"type": "Feature", "properties": {"line": "\u5730\u94c11\u53f7\u7ebf", "station": "\u83b2\u82b1\u8def", "stationNum": "3", "gaodeID": "BV10026897", "isRunning": 1}, "geometry": {"type": "Point", "coordinates": [121.40291, 31.1309]}}, {"type": "Feature", "properties": {"line": "\u5730\u94c11\u53f7\u7ebf", "station": "\u9526\u6c5f\u4e50\u56ed", "stationNum": "4", "gaodeID": "BV10026582", "isRunning": 1}, "geometry": {"type": "Point", "coordinates": [121.414107, 31.142217]}}, {"type": "Feature", "properties": {"line": "\u5730\u94c11\u53f7\u7ebf", "station": "\u4e0a\u6d77\u5357\u7ad9", "stationNum": "5", "gaodeID": "BV10025073", "isRunning": 1}, "geometry": {"type": "Point", "coordinates": [121.430041, 31.154579]}}, {"type": "Feature", "properties": {"line": "\u5730\u94c11\u53f7\u7ebf", "station": "\u6f15\u5b9d\u8def", "stationNum": "6", "gaodeID": "BV10026584", "isRunning": 1}, "geometry": {"type": "Point", "coordinates": [121.434702, 31.168228]}}, {"type": "Feature", "properties": {"line": "\u5730\u94c11\u53f7\u7ebf", "station": "\u4e0a\u6d77\u4f53\u80b2\u9986", "stationNum": "7", "gaodeID": "BV10026004", "isRunning": 1}, "geometry": {"type": "Point", "coordinates": [121.436272, 31.182001]}}, {"type": "Feature", "properties": {"line": "\u5730\u94c11\u53f7\u7ebf", "station": "\u5f90\u5bb6\u6c47", "stationNum": "8", "gaodeID": "BV10029707", "isRunning": 1}, "geometry": {"type": "Point", "coordinates": [121.438133, 31.191698]}}, {"type": "Feature", "properties": {"line": "\u5730\u94c11\u53f7\u7ebf", "station": "\u8861\u5c71\u8def", "stationNum": "9", "gaodeID": "BV10039894", "isRunning": 1}, "geometry": {"type": "Point", "coordinates": [121.446424, 31.204528]}}, {"type": "Feature", "properties": {"line": "\u5730\u94c11\u53f7\u7ebf", "station": "\u5e38\u719f\u8def", "stationNum": "10", "gaodeID": "BV10039862", "isRunning": 1}, "geometry": {"type": "Point", "coordinates": [121.451048, 31.213382]}}, {"type": "Feature", "properties": {"line": "\u5730\u94c11\u53f7\u7ebf", "station": "\u9655\u897f\u5357\u8def", "stationNum": "11", "gaodeID": "BV10039893", "isRunning": 1}, "geometry": {"type": "Point", "coordinates": [121.459957, 31.217231]}}, {"type": "Feature", "properties": {"line": "\u5730\u94c11\u53f7\u7ebf", "station": "\u4e00\u5927\u4f1a\u5740\u00b7\u9ec4\u9642\u5357\u8def", "stationNum": "12", "gaodeID": "BV10039892", "isRunning": 1}, "geometry": {"type": "Point", "coordinates": [121.473306, 31.222745]}}, {"type": "Feature", "properties": {"line": "\u5730\u94c11\u53f7\u7ebf", "station": "\u4eba\u6c11\u5e7f\u573a", "stationNum": "13", "gaodeID": "BV10024678", "isRunning": 1}, "geometry": {"type": "Point", "coordinates": [121.475108, 31.232687]}}, {"type": "Feature", "properties": {"line": "\u5730\u94c11\u53f7\u7ebf", "station": "\u65b0\u95f8\u8def", "stationNum": "14", "gaodeID": "BV10039891", "isRunning": 1}, "geometry": {"type": "Point", "coordinates": [121.468151, 31.238373]}}, {"type": "Feature", "properties": {"line": "\u5730\u94c11\u53f7\u7ebf", "station": "\u6c49\u4e2d\u8def", "stationNum": "15", "gaodeID": "BV10030213", "isRunning": 1}, "geometry": {"type": "Point", "coordinates": [121.458699, 31.241883]}}, {"type": "Feature", "properties": {"line": "\u5730\u94c11\u53f7\u7ebf", "station": "\u4e0a\u6d77\u706b\u8f66\u7ad9", "stationNum": "16", "gaodeID": "BV10024601", "isRunning": 1}, "geometry": {"type": "Point", "coordinates": [121.455684, 31.247255]}}, {"type": "Feature", "properties": {"line": "\u5730\u94c11\u53f7\u7ebf", "station": "\u4e2d\u5c71\u5317\u8def", "stationNum": "17", "gaodeID": "BV10024692", "isRunning": 1}, "geometry": {"type": "Point", "coordinates": [121.459204, 31.258891]}}, {"type": "Feature", "properties": {"line": "\u5730\u94c11\u53f7\u7ebf", "station": "\u5ef6\u957f\u8def", "stationNum": "18", "gaodeID": "BV10039890", "isRunning": 1}, "geometry": {"type": "Point", "coordinates": [121.455329, 31.271675]}}, {"type": "Feature", "properties": {"line": "\u5730\u94c11\u53f7\u7ebf", "station": "\u4e0a\u6d77\u9a6c\u620f\u57ce", "stationNum": "19", "gaodeID": "BV10039889", "isRunning": 1}, "geometry": {"type": "Point", "coordinates": [121.452023, 31.279895]}}, {"type": "Feature", "properties": {"line": "\u5730\u94c11\u53f7\u7ebf", "station": "\u6c76\u6c34\u8def", "stationNum": "20", "gaodeID": "BV10030431", "isRunning": 1}, "geometry": {"type": "Point", "coordinates": [121.450251, 31.292556]}}, {"type": "Feature", "properties": {"line": "\u5730\u94c11\u53f7\u7ebf", "station": "\u5f6d\u6d66\u65b0\u6751", "stationNum": "21", "gaodeID": "BV10025089", "isRunning": 1}, "geometry": {"type": "Point", "coordinates": [121.448642, 31.306604]}}, {"type": "Feature", "properties": {"line": "\u5730\u94c11\u53f7\u7ebf", "station": "\u5171\u5eb7\u8def", "stationNum": "22", "gaodeID": "BV10030759", "isRunning": 1}, "geometry": {"type": "Point", "coordinates": [121.447063, 31.318936]}}, {"type": "Feature", "properties": {"line": "\u5730\u94c11\u53f7\u7ebf", "station": "\u901a\u6cb3\u65b0\u6751", "stationNum": "23", "gaodeID": "BV10031109", "isRunning": 1}, "geometry": {"type": "Point", "coordinates": [121.441546, 31.33113]}}, {"type": "Feature", "properties": {"line": "\u5730\u94c11\u53f7\u7ebf", "station": "\u547c\u5170\u8def", "stationNum": "24", "gaodeID": "BV10029799", "isRunning": 1}, "geometry": {"type": "Point", "coordinates": [121.437711, 31.339703]}}, {"type": "Feature", "properties": {"line": "\u5730\u94c11\u53f7\u7ebf", "station": "\u5171\u5bcc\u65b0\u6751", "stationNum": "25", "gaodeID": "BV10039888", "isRunning": 1}, "geometry": {"type": "Point", "coordinates": [121.434063, 31.355082]}}, {"type": "Feature", "properties": {"line": "\u5730\u94c11\u53f7\u7ebf", "station": "\u5b9d\u5b89\u516c\u8def", "stationNum": "26", "gaodeID": "BV10039887", "isRunning": 1}, "geometry": {"type": "Point", "coordinates": [121.430914, 31.369555]}}, {"type": "Feature", "properties": {"line": "\u5730\u94c11\u53f7\u7ebf", "station": "\u53cb\u8c0a\u897f\u8def", "stationNum": "27", "gaodeID": "BV10039886", "isRunning": 1}, "geometry": {"type": "Point", "coordinates": [121.427953, 31.381296]}}, {"type": "Feature", "properties": {"line": "\u5730\u94c11\u53f7\u7ebf", "station": "\u5bcc\u9526\u8def", "stationNum": "28", "gaodeID": "BV10039885", "isRunning": 1}, "geometry": {"type": "Point", "coordinates": [121.424661, 31.39226]}}, {"type": "Feature", "properties": {"line": "\u5730\u94c12\u53f7\u7ebf", "station": "\u5f90\u6cfe\u4e1c", "stationNum": "1", "gaodeID": "BV10039906", "isRunning": 1}, "geometry": {"type": "Point", "coordinates": [121.299204, 31.188367]}}, {"type": "Feature", "properties": {"line": "\u5730\u94c12\u53f7\u7ebf", "station": "\u8679\u6865\u706b\u8f66\u7ad9", "stationNum": "2", "gaodeID": "BV10039905", "isRunning": 1}, "geometry": {"type": "Point", "coordinates": [121.31895, 31.194022]}}, {"type": "Feature", "properties": {"line": "\u5730\u94c12\u53f7\u7ebf", "station": "\u8679\u68652\u53f7\u822a\u7ad9\u697c", "stationNum": "3", "gaodeID": "BV10039904", "isRunning": 1}, "geometry": {"type": "Point", "coordinates": [121.3263, 31.194211]}}, {"type": "Feature", "properties": {"line": "\u5730\u94c12\u53f7\u7ebf", "station": "\u6dde\u8679\u8def", "stationNum": "4", "gaodeID": "BV10039903", "isRunning": 1}, "geometry": {"type": "Point", "coordinates": [121.359536, 31.218225]}}, {"type": "Feature", "properties": {"line": "\u5730\u94c12\u53f7\u7ebf", "station": "\u5317\u65b0\u6cfe", "stationNum": "5", "gaodeID": "BV10030316", "isRunning": 1}, "geometry": {"type": "Point", "coordinates": [121.373998, 31.216395]}}, {"type": "Feature", "properties": {"line": "\u5730\u94c12\u53f7\u7ebf", "station": "\u5a01\u5b81\u8def", "stationNum": "6", "gaodeID": "BV10039902", "isRunning": 1}, "geometry": {"type": "Point", "coordinates": [121.387285, 31.21487]}}, {"type": "Feature", "properties": {"line": "\u5730\u94c12\u53f7\u7ebf", "station": "\u5a04\u5c71\u5173\u8def", "stationNum": "7", "gaodeID": "BV10039901", "isRunning": 1}, "geometry": {"type": "Point", "coordinates": [121.404058, 31.211158]}}, {"type": "Feature", "properties": {"line": "\u5730\u94c12\u53f7\u7ebf", "station": "\u4e2d\u5c71\u516c\u56ed", "stationNum": "8", "gaodeID": "BV10025398", "isRunning": 1}, "geometry": {"type": "Point", "coordinates": [121.41802, 31.218478]}}, {"type": "Feature", "properties": {"line": "\u5730\u94c12\u53f7\u7ebf", "station": "\u6c5f\u82cf\u8def", "stationNum": "9", "gaodeID": "BV10039805", "isRunning": 1}, "geometry": {"type": "Point", "coordinates": [121.43246, 31.219899]}}, {"type": "Feature", "properties": {"line": "\u5730\u94c12\u53f7\u7ebf", "station": "\u9759\u5b89\u5bfa", "stationNum": "10", "gaodeID": "BV10025485", "isRunning": 1}, "geometry": {"type": "Point", "coordinates": [121.446533, 31.223231]}}, {"type": "Feature", "properties": {"line": "\u5730\u94c12\u53f7\u7ebf", "station": "\u5357\u4eac\u897f\u8def", "stationNum": "11", "gaodeID": "BV10039782", "isRunning": 1}, "geometry": {"type": "Point", "coordinates": [121.459971, 31.229853]}}, {"type": "Feature", "properties": {"line": "\u5730\u94c12\u53f7\u7ebf", "station": "\u4eba\u6c11\u5e7f\u573a", "stationNum": "12", "gaodeID": "BV10024678", "isRunning": 1}, "geometry": {"type": "Point", "coordinates": [121.472653, 31.233158]}}, {"type": "Feature", "properties": {"line": "\u5730\u94c12\u53f7\u7ebf", "station": "\u5357\u4eac\u4e1c\u8def", "stationNum": "13", "gaodeID": "BV10039900", "isRunning": 1}, "geometry": {"type": "Point", "coordinates": [121.483609, 31.237101]}}, {"type": "Feature", "properties": {"line": "\u5730\u94c12\u53f7\u7ebf", "station": "\u9646\u5bb6\u5634", "stationNum": "14", "gaodeID": "BV10029743", "isRunning": 1}, "geometry": {"type": "Point", "coordinates": [121.502129, 31.238259]}}, {"type": "Feature", "properties": {"line": "\u5730\u94c12\u53f7\u7ebf", "station": "\u4e1c\u660c\u8def", "stationNum": "15", "gaodeID": "BV10039899", "isRunning": 1}, "geometry": {"type": "Point", "coordinates": [121.515556, 31.23327]}}, {"type": "Feature", "properties": {"line": "\u5730\u94c12\u53f7\u7ebf", "station": "\u4e16\u7eaa\u5927\u9053", "stationNum": "16", "gaodeID": "BV10039835", "isRunning": 1}, "geometry": {"type": "Point", "coordinates": [121.527213, 31.228682]}}, {"type": "Feature", "properties": {"line": "\u5730\u94c12\u53f7\u7ebf", "station": "\u4e0a\u6d77\u79d1\u6280\u9986", "stationNum": "17", "gaodeID": "BV10031164", "isRunning": 1}, "geometry": {"type": "Point", "coordinates": [121.544439, 31.21882]}}, {"type": "Feature", "properties": {"line": "\u5730\u94c12\u53f7\u7ebf", "station": "\u4e16\u7eaa\u516c\u56ed", "stationNum": "18", "gaodeID": "BV10032793", "isRunning": 1}, "geometry": {"type": "Point", "coordinates": [121.550909, 31.209421]}}, {"type": "Feature", "properties": {"line": "\u5730\u94c12\u53f7\u7ebf", "station": "\u9f99\u9633\u8def", "stationNum": "19", "gaodeID": "BV10039851", "isRunning": 1}, "geometry": {"type": "Point", "coordinates": [121.557377, 31.202992]}}, {"type": "Feature", "properties": {"line": "\u5730\u94c12\u53f7\u7ebf", "station": "\u5f20\u6c5f\u9ad8\u79d1", "stationNum": "20", "gaodeID": "BV10039897", "isRunning": 1}, "geometry": {"type": "Point", "coordinates": [121.58749, 31.201872]}}, {"type": "Feature", "properties": {"line": "\u5730\u94c12\u53f7\u7ebf", "station": "\u91d1\u79d1\u8def", "stationNum": "21", "gaodeID": "BV10039896", "isRunning": 1}, "geometry": {"type": "Point", "coordinates": [121.601989, 31.204213]}}, {"type": "Feature", "properties": {"line": "\u5730\u94c12\u53f7\u7ebf", "station": "\u5e7f\u5170\u8def", "stationNum": "22", "gaodeID": "BV10039819", "isRunning": 1}, "geometry": {"type": "Point", "coordinates": [121.621072, 31.21105]}}, {"type": "Feature", "properties": {"line": "\u5730\u94c12\u53f7\u7ebf", "station": "\u5510\u9547", "stationNum": "23", "gaodeID": "BV11277590", "isRunning": 1}, "geometry": {"type": "Point", "coordinates": [121.656269, 31.214107]}}, {"type": "Feature", "properties": {"line": "\u5730\u94c12\u53f7\u7ebf", "station": "\u521b\u65b0\u4e2d\u8def", "stationNum": "24", "gaodeID": "BV11277592", "isRunning": 1}, "geometry": {"type": "Point", "coordinates": [121.673713, 31.213871]}}, {"type": "Feature", "properties": {"line": "\u5730\u94c12\u53f7\u7ebf", "station": "\u534e\u590f\u4e1c\u8def", "stationNum": "25", "gaodeID": "BV11277589", "isRunning": 1}, "geometry": {"type": "Point", "coordinates": [121.680972, 31.196575]}}, {"type": "Feature", "properties": {"line": "\u5730\u94c12\u53f7\u7ebf", "station": "\u5ddd\u6c99", "stationNum": "26", "gaodeID": "BV11277593", "isRunning": 1}, "geometry": {"type": "Point", "coordinates": [121.69821, 31.186741]}}, {"type": "Feature", "properties": {"line": "\u5730\u94c12\u53f7\u7ebf", "station": "\u51cc\u7a7a\u8def", "stationNum": "27", "gaodeID": "BV11277591", "isRunning": 1}, "geometry": {"type": "Point", "coordinates": [121.724095, 31.192861]}}, {"type": "Feature", "properties": {"line": "\u5730\u94c12\u53f7\u7ebf", "station": "\u8fdc\u4e1c\u5927\u9053", "stationNum": "28", "gaodeID": "BV11277594", "isRunning": 1}, "geometry": {"type": "Point", "coordinates": [121.755301, 31.199385]}}, {"type": "Feature", "properties": {"line": "\u5730\u94c12\u53f7\u7ebf", "station": "\u6d77\u5929\u4e09\u8def", "stationNum": "29", "gaodeID": "BV11277588", "isRunning": 1}, "geometry": {"type": "Point", "coordinates": [121.796878, 31.168459]}}, {"type": "Feature", "properties": {"line": "\u5730\u94c12\u53f7\u7ebf", "station": "\u6d66\u4e1c\u56fd\u9645\u673a\u573a", "stationNum": "30", "gaodeID": "BV10039826", "isRunning": 1}, "geometry": {"type": "Point", "coordinates": [121.806497, 31.150024]}}, {"type": "Feature", "properties": {"line": "\u5730\u94c12\u53f7\u7ebf\u897f\u5ef6\u6bb5(\u87e0\u7965\u8def--\u5f90\u6cfe\u4e1c)", "station": "\u87e0\u7965\u8def", "stationNum": "1", "gaodeID": "BV11596882", "isRunning": 0}, "geometry": {"type": "Point", "coordinates": [121.287442, 31.182044]}}, {"type": "Feature", "properties": {"line": "\u5730\u94c13\u53f7\u7ebf", "station": "\u4e0a\u6d77\u5357\u7ad9", "stationNum": "1", "gaodeID": "BV10025073", "isRunning": 1}, "geometry": {"type": "Point", "coordinates": [121.43106, 31.153343]}}, {"type": "Feature", "properties": {"line": "\u5730\u94c13\u53f7\u7ebf", "station": "\u77f3\u9f99\u8def", "stationNum": "2", "gaodeID": "BV10039994", "isRunning": 1}, "geometry": {"type": "Point", "coordinates": [121.443205, 31.157949]}}, {"type": "Feature", "properties": {"line": "\u5730\u94c13\u53f7\u7ebf", "station": "\u9f99\u6f15\u8def", "stationNum": "3", "gaodeID": "BV10039938", "isRunning": 1}, "geometry": {"type": "Point", "coordinates": [121.444383, 31.169458]}}, {"type": "Feature", "properties": {"line": "\u5730\u94c13\u53f7\u7ebf", "station": "\u6f15\u6eaa\u8def", "stationNum": "4", "gaodeID": "BV10039993", "isRunning": 1}, "geometry": {"type": "Point", "coordinates": [121.43841, 31.176746]}}, {"type": "Feature", "properties": {"line": "\u5730\u94c13\u53f7\u7ebf", "station": "\u5b9c\u5c71\u8def", "stationNum": "5", "gaodeID": "BV10039880", "isRunning": 1}, "geometry": {"type": "Point", "coordinates": [121.427194, 31.186717]}}, {"type": "Feature", "properties": {"line": "\u5730\u94c13\u53f7\u7ebf", "station": "\u8679\u6865\u8def", "stationNum": "6", "gaodeID": "BV10039972", "isRunning": 1}, "geometry": {"type": "Point", "coordinates": [121.420814, 31.197524]}}, {"type": "Feature", "properties": {"line": "\u5730\u94c13\u53f7\u7ebf", "station": "\u5ef6\u5b89\u897f\u8def", "stationNum": "7", "gaodeID": "BV10039992", "isRunning": 1}, "geometry": {"type": "Point", "coordinates": [121.417062, 31.209616]}}, {"type": "Feature", "properties": {"line": "\u5730\u94c13\u53f7\u7ebf", "station": "\u4e2d\u5c71\u516c\u56ed", "stationNum": "8", "gaodeID": "BV10025398", "isRunning": 1}, "geometry": {"type": "Point", "coordinates": [121.415773, 31.217948]}}, {"type": "Feature", "properties": {"line": "\u5730\u94c13\u53f7\u7ebf", "station": "\u91d1\u6c99\u6c5f\u8def", "stationNum": "9", "gaodeID": "BV10039776", "isRunning": 1}, "geometry": {"type": "Point", "coordinates": [121.413201, 31.232147]}}, {"type": "Feature", "properties": {"line": "\u5730\u94c13\u53f7\u7ebf", "station": "\u66f9\u6768\u8def", "stationNum": "10", "gaodeID": "BV10039804", "isRunning": 1}, "geometry": {"type": "Point", "coordinates": [121.417701, 31.239302]}}, {"type": "Feature", "properties": {"line": "\u5730\u94c13\u53f7\u7ebf", "station": "\u9547\u576a\u8def", "stationNum": "11", "gaodeID": "BV10039864", "isRunning": 1}, "geometry": {"type": "Point", "coordinates": [121.429779, 31.246369]}}, {"type": "Feature", "properties": {"line": "\u5730\u94c13\u53f7\u7ebf", "station": "\u4e2d\u6f6d\u8def", "stationNum": "12", "gaodeID": "BV10039991", "isRunning": 1}, "geometry": {"type": "Point", "coordinates": [121.441001, 31.254568]}}, {"type": "Feature", "properties": {"line": "\u5730\u94c13\u53f7\u7ebf", "station": "\u4e0a\u6d77\u706b\u8f66\u7ad9", "stationNum": "13", "gaodeID": "BV10024601", "isRunning": 1}, "geometry": {"type": "Point", "coordinates": [121.457939, 31.249632]}}, {"type": "Feature", "properties": {"line": "\u5730\u94c13\u53f7\u7ebf", "station": "\u5b9d\u5c71\u8def", "stationNum": "14", "gaodeID": "BV10039990", "isRunning": 1}, "geometry": {"type": "Point", "coordinates": [121.476298, 31.251523]}}, {"type": "Feature", "properties": {"line": "\u5730\u94c13\u53f7\u7ebf", "station": "\u4e1c\u5b9d\u5174\u8def", "stationNum": "15", "gaodeID": "BV10039989", "isRunning": 1}, "geometry": {"type": "Point", "coordinates": [121.480202, 31.259886]}}, {"type": "Feature", "properties": {"line": "\u5730\u94c13\u53f7\u7ebf", "station": "\u8679\u53e3\u8db3\u7403\u573a", "stationNum": "16", "gaodeID": "BV10024871", "isRunning": 1}, "geometry": {"type": "Point", "coordinates": [121.479154, 31.271392]}}, {"type": "Feature", "properties": {"line": "\u5730\u94c13\u53f7\u7ebf", "station": "\u8d64\u5cf0\u8def", "stationNum": "17", "gaodeID": "BV10039988", "isRunning": 1}, "geometry": {"type": "Point", "coordinates": [121.482429, 31.281247]}}, {"type": "Feature", "properties": {"line": "\u5730\u94c13\u53f7\u7ebf", "station": "\u5927\u67cf\u6811", "stationNum": "18", "gaodeID": "BV10030068", "isRunning": 1}, "geometry": {"type": "Point", "coordinates": [121.483216, 31.289433]}}, {"type": "Feature", "properties": {"line": "\u5730\u94c13\u53f7\u7ebf", "station": "\u6c5f\u6e7e\u9547", "stationNum": "19", "gaodeID": "BV10026161", "isRunning": 1}, "geometry": {"type": "Point", "coordinates": [121.485064, 31.305566]}}, {"type": "Feature", "properties": {"line": "\u5730\u94c13\u53f7\u7ebf", "station": "\u6bb7\u9ad8\u897f\u8def", "stationNum": "20", "gaodeID": "BV10039987", "isRunning": 1}, "geometry": {"type": "Point", "coordinates": [121.484856, 31.320005]}}, {"type": "Feature", "properties": {"line": "\u5730\u94c13\u53f7\u7ebf", "station": "\u957f\u6c5f\u5357\u8def", "stationNum": "21", "gaodeID": "BV10039986", "isRunning": 1}, "geometry": {"type": "Point", "coordinates": [121.491482, 31.332062]}}, {"type": "Feature", "properties": {"line": "\u5730\u94c13\u53f7\u7ebf", "station": "\u6dde\u53d1\u8def", "stationNum": "22", "gaodeID": "BV10039985", "isRunning": 1}, "geometry": {"type": "Point", "coordinates": [121.50039, 31.345135]}}, {"type": "Feature", "properties": {"line": "\u5730\u94c13\u53f7\u7ebf", "station": "\u5f20\u534e\u6d5c", "stationNum": "23", "gaodeID": "BV10029541", "isRunning": 1}, "geometry": {"type": "Point", "coordinates": [121.498671, 31.358016]}}, {"type": "Feature", "properties": {"line": "\u5730\u94c13\u53f7\u7ebf", "station": "\u6dde\u6ee8\u8def", "stationNum": "24", "gaodeID": "BV10026162", "isRunning": 1}, "geometry": {"type": "Point", "coordinates": [121.492818, 31.370928]}}, {"type": "Feature", "properties": {"line": "\u5730\u94c13\u53f7\u7ebf", "station": "\u6c34\u4ea7\u8def", "stationNum": "25", "gaodeID": "BV10039984", "isRunning": 1}, "geometry": {"type": "Point", "coordinates": [121.488247, 31.381302]}}, {"type": "Feature", "properties": {"line": "\u5730\u94c13\u53f7\u7ebf", "station": "\u5b9d\u6768\u8def", "stationNum": "26", "gaodeID": "BV10026163", "isRunning": 1}, "geometry": {"type": "Point", "coordinates": [121.479574, 31.395315]}}, {"type": "Feature", "properties": {"line": "\u5730\u94c13\u53f7\u7ebf", "station": "\u53cb\u8c0a\u8def", "stationNum": "27", "gaodeID": "BV10039983", "isRunning": 1}, "geometry": {"type": "Point", "coordinates": [121.475924, 31.404016]}}, {"type": "Feature", "properties": {"line": "\u5730\u94c13\u53f7\u7ebf", "station": "\u94c1\u529b\u8def", "stationNum": "28", "gaodeID": "BV10039982", "isRunning": 1}, "geometry": {"type": "Point", "coordinates": [121.461139, 31.40812]}}, {"type": "Feature", "properties": {"line": "\u5730\u94c13\u53f7\u7ebf", "station": "\u6c5f\u6768\u5317\u8def", "stationNum": "29", "gaodeID": "BV10039981", "isRunning": 1}, "geometry": {"type": "Point", "coordinates": [121.439819, 31.407858]}}, {"type": "Feature", "properties": {"line": "\u5730\u94c14\u53f7\u7ebf", "station": "\u5b9c\u5c71\u8def", "stationNum": "1", "gaodeID": "BV10039880", "isRunning": 1}, "geometry": {"type": "Point", "coordinates": [121.427238, 31.187082]}}, {"type": "Feature", "properties": {"line": "\u5730\u94c14\u53f7\u7ebf", "station": "\u4e0a\u6d77\u4f53\u80b2\u9986", "stationNum": "2", "gaodeID": "BV10026004", "isRunning": 1}, "geometry": {"type": "Point", "coordinates": [121.437423, 31.182813]}}, {"type": "Feature", "properties": {"line": "\u5730\u94c14\u53f7\u7ebf", "station": "\u4e0a\u6d77\u4f53\u80b2\u573a", "stationNum": "3", "gaodeID": "BV10024951", "isRunning": 1}, "geometry": {"type": "Point", "coordinates": [121.443529, 31.185605]}}, {"type": "Feature", "properties": {"line": "\u5730\u94c14\u53f7\u7ebf", "station": "\u4e1c\u5b89\u8def", "stationNum": "4", "gaodeID": "BV10039860", "isRunning": 1}, "geometry": {"type": "Point", "coordinates": [121.454897, 31.190819]}}, {"type": "Feature", "properties": {"line": "\u5730\u94c14\u53f7\u7ebf", "station": "\u5927\u6728\u6865\u8def", "stationNum": "5", "gaodeID": "BV10039940", "isRunning": 1}, "geometry": {"type": "Point", "coordinates": [121.463278, 31.194057]}}, {"type": "Feature", "properties": {"line": "\u5730\u94c14\u53f7\u7ebf", "station": "\u9c81\u73ed\u8def", "stationNum": "6", "gaodeID": "BV10039997", "isRunning": 1}, "geometry": {"type": "Point", "coordinates": [121.475148, 31.199221]}}, {"type": "Feature", "properties": {"line": "\u5730\u94c14\u53f7\u7ebf", "station": "\u897f\u85cf\u5357\u8def", "stationNum": "7", "gaodeID": "BV10039916", "isRunning": 1}, "geometry": {"type": "Point", "coordinates": [121.489555, 31.201967]}}, {"type": "Feature", "properties": {"line": "\u5730\u94c14\u53f7\u7ebf", "station": "\u5357\u6d66\u5927\u6865", "stationNum": "8", "gaodeID": "BV10025227", "isRunning": 1}, "geometry": {"type": "Point", "coordinates": [121.499725, 31.208504]}}, {"type": "Feature", "properties": {"line": "\u5730\u94c14\u53f7\u7ebf", "station": "\u5858\u6865", "stationNum": "9", "gaodeID": "BV10034167", "isRunning": 1}, "geometry": {"type": "Point", "coordinates": [121.51869, 31.209762]}}, {"type": "Feature", "properties": {"line": "\u5730\u94c14\u53f7\u7ebf", "station": "\u84dd\u6751\u8def", "stationNum": "10", "gaodeID": "BV10039833", "isRunning": 1}, "geometry": {"type": "Point", "coordinates": [121.5279, 31.211563]}}, {"type": "Feature", "properties": {"line": "\u5730\u94c14\u53f7\u7ebf", "station": "\u6d66\u7535\u8def(4\u53f7\u7ebf)", "stationNum": "11", "gaodeID": "BV10426326", "isRunning": 1}, "geometry": {"type": "Point", "coordinates": [121.53208, 31.222285]}}, {"type": "Feature", "properties": {"line": "\u5730\u94c14\u53f7\u7ebf", "station": "\u4e16\u7eaa\u5927\u9053", "stationNum": "12", "gaodeID": "BV10039835", "isRunning": 1}, "geometry": {"type": "Point", "coordinates": [121.527213, 31.228682]}}, {"type": "Feature", "properties": {"line": "\u5730\u94c14\u53f7\u7ebf", "station": "\u6d66\u4e1c\u5927\u9053", "stationNum": "13", "gaodeID": "BV10039950", "isRunning": 1}, "geometry": {"type": "Point", "coordinates": [121.519302, 31.240308]}}, {"type": "Feature", "properties": {"line": "\u5730\u94c14\u53f7\u7ebf", "station": "\u6768\u6811\u6d66\u8def", "stationNum": "14", "gaodeID": "BV10039996", "isRunning": 1}, "geometry": {"type": "Point", "coordinates": [121.51721, 31.251935]}}, {"type": "Feature", "properties": {"line": "\u5730\u94c14\u53f7\u7ebf", "station": "\u5927\u8fde\u8def", "stationNum": "15", "gaodeID": "BV10039931", "isRunning": 1}, "geometry": {"type": "Point", "coordinates": [121.513088, 31.257938]}}, {"type": "Feature", "properties": {"line": "\u5730\u94c14\u53f7\u7ebf", "station": "\u4e34\u5e73\u8def", "stationNum": "16", "gaodeID": "BV10039995", "isRunning": 1}, "geometry": {"type": "Point", "coordinates": [121.500696, 31.260874]}}, {"type": "Feature", "properties": {"line": "\u5730\u94c14\u53f7\u7ebf", "station": "\u6d77\u4f26\u8def", "stationNum": "17", "gaodeID": "BV10039975", "isRunning": 1}, "geometry": {"type": "Point", "coordinates": [121.489663, 31.259018]}}, {"type": "Feature", "properties": {"line": "\u5730\u94c14\u53f7\u7ebf", "station": "\u5b9d\u5c71\u8def", "stationNum": "18", "gaodeID": "BV10039990", "isRunning": 1}, "geometry": {"type": "Point", "coordinates": [121.476298, 31.251523]}}, {"type": "Feature", "properties": {"line": "\u5730\u94c14\u53f7\u7ebf", "station": "\u4e0a\u6d77\u706b\u8f66\u7ad9", "stationNum": "19", "gaodeID": "BV10024601", "isRunning": 1}, "geometry": {"type": "Point", "coordinates": [121.457939, 31.249632]}}, {"type": "Feature", "properties": {"line": "\u5730\u94c14\u53f7\u7ebf", "station": "\u4e2d\u6f6d\u8def", "stationNum": "20", "gaodeID": "BV10039991", "isRunning": 1}, "geometry": {"type": "Point", "coordinates": [121.441001, 31.254568]}}, {"type": "Feature", "properties": {"line": "\u5730\u94c14\u53f7\u7ebf", "station": "\u9547\u576a\u8def", "stationNum": "21", "gaodeID": "BV10039864", "isRunning": 1}, "geometry": {"type": "Point", "coordinates": [121.429779, 31.246369]}}, {"type": "Feature", "properties": {"line": "\u5730\u94c14\u53f7\u7ebf", "station": "\u66f9\u6768\u8def", "stationNum": "22", "gaodeID": "BV10039804", "isRunning": 1}, "geometry": {"type": "Point", "coordinates": [121.417701, 31.239302]}}, {"type": "Feature", "properties": {"line": "\u5730\u94c14\u53f7\u7ebf", "station": "\u91d1\u6c99\u6c5f\u8def", "stationNum": "23", "gaodeID": "BV10039776", "isRunning": 1}, "geometry": {"type": "Point", "coordinates": [121.413201, 31.232147]}}, {"type": "Feature", "properties": {"line": "\u5730\u94c14\u53f7\u7ebf", "station": "\u4e2d\u5c71\u516c\u56ed", "stationNum": "24", "gaodeID": "BV10025398", "isRunning": 1}, "geometry": {"type": "Point", "coordinates": [121.415773, 31.217948]}}, {"type": "Feature", "properties": {"line": "\u5730\u94c14\u53f7\u7ebf", "station": "\u5ef6\u5b89\u897f\u8def", "stationNum": "25", "gaodeID": "BV10039992", "isRunning": 1}, "geometry": {"type": "Point", "coordinates": [121.417062, 31.209616]}}, {"type": "Feature", "properties": {"line": "\u5730\u94c14\u53f7\u7ebf", "station": "\u8679\u6865\u8def", "stationNum": "26", "gaodeID": "BV10039972", "isRunning": 1}, "geometry": {"type": "Point", "coordinates": [121.420814, 31.197524]}}, {"type": "Feature", "properties": {"line": "\u5730\u94c15\u53f7\u7ebf", "station": "\u5949\u8d24\u65b0\u57ce", "stationNum": "1", "gaodeID": "BV10717296", "isRunning": 1}, "geometry": {"type": "Point", "coordinates": [121.49629, 30.913916]}}, {"type": "Feature", "properties": {"line": "\u5730\u94c15\u53f7\u7ebf", "station": "\u91d1\u6d77\u6e56", "stationNum": "2", "gaodeID": "BV10717289", "isRunning": 1}, "geometry": {"type": "Point", "coordinates": [121.492506, 30.928805]}}, {"type": "Feature", "properties": {"line": "\u5730\u94c15\u53f7\u7ebf", "station": "\u671b\u56ed\u8def", "stationNum": "3", "gaodeID": "BV10717291", "isRunning": 1}, "geometry": {"type": "Point", "coordinates": [121.48358, 30.93194]}}, {"type": "Feature", "properties": {"line": "\u5730\u94c15\u53f7\u7ebf", "station": "\u73af\u57ce\u4e1c\u8def", "stationNum": "4", "gaodeID": "BV10717295", "isRunning": 1}, "geometry": {"type": "Point", "coordinates": [121.463204, 30.931168]}}, {"type": "Feature", "properties": {"line": "\u5730\u94c15\u53f7\u7ebf", "station": "\u5949\u6d66\u5927\u9053", "stationNum": "5", "gaodeID": "BV10717294", "isRunning": 1}, "geometry": {"type": "Point", "coordinates": [121.448984, 30.942055]}}, {"type": "Feature", "properties": {"line": "\u5730\u94c15\u53f7\u7ebf", "station": "\u8427\u5858", "stationNum": "6", "gaodeID": "BV10717297", "isRunning": 1}, "geometry": {"type": "Point", "coordinates": [121.441857, 30.965888]}}, {"type": "Feature", "properties": {"line": "\u5730\u94c15\u53f7\u7ebf", "station": "\u897f\u6e21", "stationNum": "7", "gaodeID": "BV10717290", "isRunning": 1}, "geometry": {"type": "Point", "coordinates": [121.432441, 30.98935]}}, {"type": "Feature", "properties": {"line": "\u5730\u94c15\u53f7\u7ebf", "station": "\u6c5f\u5ddd\u8def", "stationNum": "8", "gaodeID": "BV10717293", "isRunning": 1}, "geometry": {"type": "Point", "coordinates": [121.423474, 31.005428]}}, {"type": "Feature", "properties": {"line": "\u5730\u94c15\u53f7\u7ebf", "station": "\u4e1c\u5ddd\u8def", "stationNum": "9", "gaodeID": "BV10028337", "isRunning": 1}, "geometry": {"type": "Point", "coordinates": [121.419901, 31.018197]}}, {"type": "Feature", "properties": {"line": "\u5730\u94c15\u53f7\u7ebf", "station": "\u5251\u5ddd\u8def", "stationNum": "10", "gaodeID": "BV10040000", "isRunning": 1}, "geometry": {"type": "Point", "coordinates": [121.416582, 31.026483]}}, {"type": "Feature", "properties": {"line": "\u5730\u94c15\u53f7\u7ebf", "station": "\u5317\u6865", "stationNum": "11", "gaodeID": "BV10026118", "isRunning": 1}, "geometry": {"type": "Point", "coordinates": [121.410054, 31.045112]}}, {"type": "Feature", "properties": {"line": "\u5730\u94c15\u53f7\u7ebf", "station": "\u989b\u6865", "stationNum": "12", "gaodeID": "BV10026120", "isRunning": 1}, "geometry": {"type": "Point", "coordinates": [121.401868, 31.067013]}}, {"type": "Feature", "properties": {"line": "\u5730\u94c15\u53f7\u7ebf", "station": "\u94f6\u90fd\u8def", "stationNum": "13", "gaodeID": "BV10039999", "isRunning": 1}, "geometry": {"type": "Point", "coordinates": [121.390264, 31.089345]}}, {"type": "Feature", "properties": {"line": "\u5730\u94c15\u53f7\u7ebf", "station": "\u6625\u7533\u8def", "stationNum": "14", "gaodeID": "BV10039998", "isRunning": 1}, "geometry": {"type": "Point", "coordinates": [121.385818, 31.09825]}}, {"type": "Feature", "properties": {"line": "\u5730\u94c15\u53f7\u7ebf", "station": "\u8398\u5e84", "stationNum": "15", "gaodeID": "BV10025001", "isRunning": 1}, "geometry": {"type": "Point", "coordinates": [121.385373, 31.111152]}}, {"type": "Feature", "properties": {"line": "\u5730\u94c15\u53f7\u7ebf(\u95f5\u884c\u5f00\u53d1\u533a--\u8398\u5e84)", "station": "\u95f5\u884c\u5f00\u53d1\u533a", "stationNum": "1", "gaodeID": "BV10040004", "isRunning": 1}, "geometry": {"type": "Point", "coordinates": [121.369712, 31.000627]}}, {"type": "Feature", "properties": {"line": "\u5730\u94c15\u53f7\u7ebf(\u95f5\u884c\u5f00\u53d1\u533a--\u8398\u5e84)", "station": "\u6587\u4e95\u8def", "stationNum": "2", "gaodeID": "BV10040003", "isRunning": 1}, "geometry": {"type": "Point", "coordinates": [121.380775, 31.003597]}}, {"type": "Feature", "properties": {"line": "\u5730\u94c15\u53f7\u7ebf(\u95f5\u884c\u5f00\u53d1\u533a--\u8398\u5e84)", "station": "\u534e\u5b81\u8def", "stationNum": "3", "gaodeID": "BV10040002", "isRunning": 1}, "geometry": {"type": "Point", "coordinates": [121.395255, 31.007467]}}, {"type": "Feature", "properties": {"line": "\u5730\u94c15\u53f7\u7ebf(\u95f5\u884c\u5f00\u53d1\u533a--\u8398\u5e84)", "station": "\u91d1\u5e73\u8def", "stationNum": "4", "gaodeID": "BV10040001", "isRunning": 1}, "geometry": {"type": "Point", "coordinates": [121.410186, 31.011282]}}, {"type": "Feature", "properties": {"line": "\u5730\u94c16\u53f7\u7ebf", "station": "\u6e2f\u57ce\u8def", "stationNum": "1", "gaodeID": "BV10039849", "isRunning": 1}, "geometry": {"type": "Point", "coordinates": [121.575012, 31.353085]}}, {"type": "Feature", "properties": {"line": "\u5730\u94c16\u53f7\u7ebf", "station": "\u5916\u9ad8\u6865\u4fdd\u7a0e\u533a\u5317", "stationNum": "2", "gaodeID": "BV10039848", "isRunning": 1}, "geometry": {"type": "Point", "coordinates": [121.586926, 31.347802]}}, {"type": "Feature", "properties": {"line": "\u5730\u94c16\u53f7\u7ebf", "station": "\u822a\u6d25\u8def", "stationNum": "3", "gaodeID": "BV10039847", "isRunning": 1}, "geometry": {"type": "Point", "coordinates": [121.593974, 31.335371]}}, {"type": "Feature", "properties": {"line": "\u5730\u94c16\u53f7\u7ebf", "station": "\u5916\u9ad8\u6865\u4fdd\u7a0e\u533a\u5357", "stationNum": "4", "gaodeID": "BV10030681", "isRunning": 1}, "geometry": {"type": "Point", "coordinates": [121.601963, 31.321578]}}, {"type": "Feature", "properties": {"line": "\u5730\u94c16\u53f7\u7ebf", "station": "\u6d32\u6d77\u8def", "stationNum": "5", "gaodeID": "BV10039846", "isRunning": 1}, "geometry": {"type": "Point", "coordinates": [121.589396, 31.312229]}}, {"type": "Feature", "properties": {"line": "\u5730\u94c16\u53f7\u7ebf", "station": "\u4e94\u6d32\u5927\u9053", "stationNum": "6", "gaodeID": "BV10039845", "isRunning": 1}, "geometry": {"type": "Point", "coordinates": [121.589212, 31.302569]}}, {"type": "Feature", "properties": {"line": "\u5730\u94c16\u53f7\u7ebf", "station": "\u4e1c\u9756\u8def", "stationNum": "7", "gaodeID": "BV10039844", "isRunning": 1}, "geometry": {"type": "Point", "coordinates": [121.588736, 31.290684]}}, {"type": "Feature", "properties": {"line": "\u5730\u94c16\u53f7\u7ebf", "station": "\u5de8\u5cf0\u8def", "stationNum": "8", "gaodeID": "BV10039843", "isRunning": 1}, "geometry": {"type": "Point", "coordinates": [121.588365, 31.280684]}}, {"type": "Feature", "properties": {"line": "\u5730\u94c16\u53f7\u7ebf", "station": "\u4e94\u83b2\u8def", "stationNum": "9", "gaodeID": "BV10039842", "isRunning": 1}, "geometry": {"type": "Point", "coordinates": [121.587866, 31.272025]}}, {"type": "Feature", "properties": {"line": "\u5730\u94c16\u53f7\u7ebf", "station": "\u535a\u5174\u8def", "stationNum": "10", "gaodeID": "BV10031099", "isRunning": 1}, "geometry": {"type": "Point", "coordinates": [121.586689, 31.26352]}}, {"type": "Feature", "properties": {"line": "\u5730\u94c16\u53f7\u7ebf", "station": "\u91d1\u6865\u8def", "stationNum": "11", "gaodeID": "BV10039841", "isRunning": 1}, "geometry": {"type": "Point", "coordinates": [121.581817, 31.257084]}}, {"type": "Feature", "properties": {"line": "\u5730\u94c16\u53f7\u7ebf", "station": "\u4e91\u5c71\u8def", "stationNum": "12", "gaodeID": "BV10039840", "isRunning": 1}, "geometry": {"type": "Point", "coordinates": [121.572775, 31.250413]}}, {"type": "Feature", "properties": {"line": "\u5730\u94c16\u53f7\u7ebf", "station": "\u5fb7\u5e73\u8def", "stationNum": "13", "gaodeID": "BV10039839", "isRunning": 1}, "geometry": {"type": "Point", "coordinates": [121.564237, 31.2454]}}, {"type": "Feature", "properties": {"line": "\u5730\u94c16\u53f7\u7ebf", "station": "\u5317\u6d0b\u6cfe\u8def", "stationNum": "14", "gaodeID": "BV10039838", "isRunning": 1}, "geometry": {"type": "Point", "coordinates": [121.552314, 31.239145]}}, {"type": "Feature", "properties": {"line": "\u5730\u94c16\u53f7\u7ebf", "station": "\u6c11\u751f\u8def", "stationNum": "15", "gaodeID": "BV10039837", "isRunning": 1}, "geometry": {"type": "Point", "coordinates": [121.543527, 31.235851]}}, {"type": "Feature", "properties": {"line": "\u5730\u94c16\u53f7\u7ebf", "station": "\u6e90\u6df1\u4f53\u80b2\u4e2d\u5fc3", "stationNum": "16", "gaodeID": "BV10039836", "isRunning": 1}, "geometry": {"type": "Point", "coordinates": [121.534642, 31.233004]}}, {"type": "Feature", "properties": {"line": "\u5730\u94c16\u53f7\u7ebf", "station": "\u4e16\u7eaa\u5927\u9053", "stationNum": "17", "gaodeID": "BV10039835", "isRunning": 1}, "geometry": {"type": "Point", "coordinates": [121.527213, 31.228682]}}, {"type": "Feature", "properties": {"line": "\u5730\u94c16\u53f7\u7ebf", "station": "\u6d66\u7535\u8def(6\u53f7\u7ebf)", "stationNum": "18", "gaodeID": "BV10426327", "isRunning": 1}, "geometry": {"type": "Point", "coordinates": [121.529351, 31.220154]}}, {"type": "Feature", "properties": {"line": "\u5730\u94c16\u53f7\u7ebf", "station": "\u84dd\u6751\u8def", "stationNum": "19", "gaodeID": "BV10039833", "isRunning": 1}, "geometry": {"type": "Point", "coordinates": [121.527627, 31.211672]}}, {"type": "Feature", "properties": {"line": "\u5730\u94c16\u53f7\u7ebf", "station": "\u4e0a\u6d77\u513f\u7ae5\u533b\u5b66\u4e2d\u5fc3", "stationNum": "20", "gaodeID": "BV10039832", "isRunning": 1}, "geometry": {"type": "Point", "coordinates": [121.523482, 31.203277]}}, {"type": "Feature", "properties": {"line": "\u5730\u94c16\u53f7\u7ebf", "station": "\u4e34\u6c82\u65b0\u6751", "stationNum": "21", "gaodeID": "BV10039831", "isRunning": 1}, "geometry": {"type": "Point", "coordinates": [121.516695, 31.193202]}}, {"type": "Feature", "properties": {"line": "\u5730\u94c16\u53f7\u7ebf", "station": "\u9ad8\u79d1\u897f\u8def", "stationNum": "22", "gaodeID": "BV10025916", "isRunning": 1}, "geometry": {"type": "Point", "coordinates": [121.509845, 31.185761]}}, {"type": "Feature", "properties": {"line": "\u5730\u94c16\u53f7\u7ebf", "station": "\u4e1c\u660e\u8def", "stationNum": "23", "gaodeID": "BV10039787", "isRunning": 1}, "geometry": {"type": "Point", "coordinates": [121.510868, 31.172646]}}, {"type": "Feature", "properties": {"line": "\u5730\u94c16\u53f7\u7ebf", "station": "\u9ad8\u9752\u8def", "stationNum": "24", "gaodeID": "BV10039830", "isRunning": 1}, "geometry": {"type": "Point", "coordinates": [121.515787, 31.159907]}}, {"type": "Feature", "properties": {"line": "\u5730\u94c16\u53f7\u7ebf", "station": "\u534e\u590f\u897f\u8def", "stationNum": "25", "gaodeID": "BV10039829", "isRunning": 1}, "geometry": {"type": "Point", "coordinates": [121.514539, 31.149878]}}, {"type": "Feature", "properties": {"line": "\u5730\u94c16\u53f7\u7ebf", "station": "\u4e0a\u5357\u8def", "stationNum": "26", "gaodeID": "BV10039828", "isRunning": 1}, "geometry": {"type": "Point", "coordinates": [121.506447, 31.14882]}}, {"type": "Feature", "properties": {"line": "\u5730\u94c16\u53f7\u7ebf", "station": "\u7075\u5ca9\u5357\u8def", "stationNum": "27", "gaodeID": "BV10039827", "isRunning": 1}, "geometry": {"type": "Point", "coordinates": [121.495295, 31.148665]}}, {"type": "Feature", "properties": {"line": "\u5730\u94c16\u53f7\u7ebf", "station": "\u4e1c\u65b9\u4f53\u80b2\u4e2d\u5fc3", "stationNum": "28", "gaodeID": "BV10032522", "isRunning": 1}, "geometry": {"type": "Point", "coordinates": [121.480304, 31.153366]}}, {"type": "Feature", "properties": {"line": "\u5730\u94c17\u53f7\u7ebf", "station": "\u7f8e\u5170\u6e56", "stationNum": "1", "gaodeID": "BV10039872", "isRunning": 1}, "geometry": {"type": "Point", "coordinates": [121.349894, 31.401889]}}, {"type": "Feature", "properties": {"line": "\u5730\u94c17\u53f7\u7ebf", "station": "\u7f57\u5357\u65b0\u6751", "stationNum": "2", "gaodeID": "BV10032414", "isRunning": 1}, "geometry": {"type": "Point", "coordinates": [121.35747, 31.388831]}}, {"type": "Feature", "properties": {"line": "\u5730\u94c17\u53f7\u7ebf", "station": "\u6f58\u5e7f\u8def", "stationNum": "3", "gaodeID": "BV10039871", "isRunning": 1}, "geometry": {"type": "Point", "coordinates": [121.355845, 31.364182]}}, {"type": "Feature", "properties": {"line": "\u5730\u94c17\u53f7\u7ebf", "station": "\u5218\u884c", "stationNum": "4", "gaodeID": "BV10026230", "isRunning": 1}, "geometry": {"type": "Point", "coordinates": [121.362376, 31.357586]}}, {"type": "Feature", "properties": {"line": "\u5730\u94c17\u53f7\u7ebf", "station": "\u987e\u6751\u516c\u56ed", "stationNum": "5", "gaodeID": "BV10026233", "isRunning": 1}, "geometry": {"type": "Point", "coordinates": [121.373009, 31.344594]}}, {"type": "Feature", "properties": {"line": "\u5730\u94c17\u53f7\u7ebf", "station": "\u7941\u534e\u8def", "stationNum": "6", "gaodeID": "BV10030597", "isRunning": 1}, "geometry": {"type": "Point", "coordinates": [121.373529, 31.322388]}}, {"type": "Feature", "properties": {"line": "\u5730\u94c17\u53f7\u7ebf", "station": "\u4e0a\u6d77\u5927\u5b66", "stationNum": "7", "gaodeID": "BV10024672", "isRunning": 1}, "geometry": {"type": "Point", "coordinates": [121.388884, 31.320586]}}, {"type": "Feature", "properties": {"line": "\u5730\u94c17\u53f7\u7ebf", "station": "\u5357\u9648\u8def", "stationNum": "8", "gaodeID": "BV10030226", "isRunning": 1}, "geometry": {"type": "Point", "coordinates": [121.398419, 31.32174]}}, {"type": "Feature", "properties": {"line": "\u5730\u94c17\u53f7\u7ebf", "station": "\u4e0a\u5927\u8def", "stationNum": "9", "gaodeID": "BV10039870", "isRunning": 1}, "geometry": {"type": "Point", "coordinates": [121.408686, 31.314969]}}, {"type": "Feature", "properties": {"line": "\u5730\u94c17\u53f7\u7ebf", "station": "\u573a\u4e2d\u8def", "stationNum": "10", "gaodeID": "BV10039869", "isRunning": 1}, "geometry": {"type": "Point", "coordinates": [121.413458, 31.303682]}}, {"type": "Feature", "properties": {"line": "\u5730\u94c17\u53f7\u7ebf", "station": "\u5927\u573a\u9547", "stationNum": "11", "gaodeID": "BV10030231", "isRunning": 1}, "geometry": {"type": "Point", "coordinates": [121.416157, 31.293259]}}, {"type": "Feature", "properties": {"line": "\u5730\u94c17\u53f7\u7ebf", "station": "\u884c\u77e5\u8def", "stationNum": "12", "gaodeID": "BV10039868", "isRunning": 1}, "geometry": {"type": "Point", "coordinates": [121.42177, 31.284496]}}, {"type": "Feature", "properties": {"line": "\u5730\u94c17\u53f7\u7ebf", "station": "\u5927\u534e\u4e09\u8def", "stationNum": "13", "gaodeID": "BV10039867", "isRunning": 1}, "geometry": {"type": "Point", "coordinates": [121.422949, 31.274047]}}, {"type": "Feature", "properties": {"line": "\u5730\u94c17\u53f7\u7ebf", "station": "\u65b0\u6751\u8def", "stationNum": "14", "gaodeID": "BV10039866", "isRunning": 1}, "geometry": {"type": "Point", "coordinates": [121.422668, 31.263855]}}, {"type": "Feature", "properties": {"line": "\u5730\u94c17\u53f7\u7ebf", "station": "\u5c9a\u768b\u8def", "stationNum": "15", "gaodeID": "BV10039865", "isRunning": 1}, "geometry": {"type": "Point", "coordinates": [121.421939, 31.256198]}}, {"type": "Feature", "properties": {"line": "\u5730\u94c17\u53f7\u7ebf", "station": "\u9547\u576a\u8def", "stationNum": "16", "gaodeID": "BV10039864", "isRunning": 1}, "geometry": {"type": "Point", "coordinates": [121.431677, 31.246764]}}, {"type": "Feature", "properties": {"line": "\u5730\u94c17\u53f7\u7ebf", "station": "\u957f\u5bff\u8def", "stationNum": "17", "gaodeID": "BV10039779", "isRunning": 1}, "geometry": {"type": "Point", "coordinates": [121.438233, 31.239915]}}, {"type": "Feature", "properties": {"line": "\u5730\u94c17\u53f7\u7ebf", "station": "\u660c\u5e73\u8def", "stationNum": "18", "gaodeID": "BV10039863", "isRunning": 1}, "geometry": {"type": "Point", "coordinates": [121.442617, 31.233749]}}, {"type": "Feature", "properties": {"line": "\u5730\u94c17\u53f7\u7ebf", "station": "\u9759\u5b89\u5bfa", "stationNum": "19", "gaodeID": "BV10025485", "isRunning": 1}, "geometry": {"type": "Point", "coordinates": [121.448502, 31.223083]}}, {"type": "Feature", "properties": {"line": "\u5730\u94c17\u53f7\u7ebf", "station": "\u5e38\u719f\u8def", "stationNum": "20", "gaodeID": "BV10039862", "isRunning": 1}, "geometry": {"type": "Point", "coordinates": [121.449141, 31.213524]}}, {"type": "Feature", "properties": {"line": "\u5730\u94c17\u53f7\u7ebf", "station": "\u8087\u5609\u6d5c\u8def", "stationNum": "21", "gaodeID": "BV10039861", "isRunning": 1}, "geometry": {"type": "Point", "coordinates": [121.450408, 31.198684]}}, {"type": "Feature", "properties": {"line": "\u5730\u94c17\u53f7\u7ebf", "station": "\u4e1c\u5b89\u8def", "stationNum": "22", "gaodeID": "BV10039860", "isRunning": 1}, "geometry": {"type": "Point", "coordinates": [121.454897, 31.190819]}}, {"type": "Feature", "properties": {"line": "\u5730\u94c17\u53f7\u7ebf", "station": "\u9f99\u534e\u4e2d\u8def", "stationNum": "23", "gaodeID": "BV10039859", "isRunning": 1}, "geometry": {"type": "Point", "coordinates": [121.457064, 31.184379]}}, {"type": "Feature", "properties": {"line": "\u5730\u94c17\u53f7\u7ebf", "station": "\u540e\u6ee9", "stationNum": "24", "gaodeID": "BV10039858", "isRunning": 1}, "geometry": {"type": "Point", "coordinates": [121.473756, 31.171918]}}, {"type": "Feature", "properties": {"line": "\u5730\u94c17\u53f7\u7ebf", "station": "\u957f\u6e05\u8def", "stationNum": "25", "gaodeID": "BV10039786", "isRunning": 1}, "geometry": {"type": "Point", "coordinates": [121.486117, 31.174611]}}, {"type": "Feature", "properties": {"line": "\u5730\u94c17\u53f7\u7ebf", "station": "\u8000\u534e\u8def", "stationNum": "26", "gaodeID": "BV10039857", "isRunning": 1}, "geometry": {"type": "Point", "coordinates": [121.494605, 31.178513]}}, {"type": "Feature", "properties": {"line": "\u5730\u94c17\u53f7\u7ebf", "station": "\u4e91\u53f0\u8def", "stationNum": "27", "gaodeID": "BV10039856", "isRunning": 1}, "geometry": {"type": "Point", "coordinates": [121.500439, 31.182212]}}, {"type": "Feature", "properties": {"line": "\u5730\u94c17\u53f7\u7ebf", "station": "\u9ad8\u79d1\u897f\u8def", "stationNum": "28", "gaodeID": "BV10025916", "isRunning": 1}, "geometry": {"type": "Point", "coordinates": [121.509845, 31.185761]}}, {"type": "Feature", "properties": {"line": "\u5730\u94c17\u53f7\u7ebf", "station": "\u6768\u9ad8\u5357\u8def", "stationNum": "29", "gaodeID": "BV10039855", "isRunning": 1}, "geometry": {"type": "Point", "coordinates": [121.524539, 31.187613]}}, {"type": "Feature", "properties": {"line": "\u5730\u94c17\u53f7\u7ebf", "station": "\u9526\u7ee3\u8def", "stationNum": "30", "gaodeID": "BV10039854", "isRunning": 1}, "geometry": {"type": "Point", "coordinates": [121.540041, 31.187592]}}, {"type": "Feature", "properties": {"line": "\u5730\u94c17\u53f7\u7ebf", "station": "\u82b3\u534e\u8def", "stationNum": "31", "gaodeID": "BV10039853", "isRunning": 1}, "geometry": {"type": "Point", "coordinates": [121.550115, 31.19311]}}, {"type": "Feature", "properties": {"line": "\u5730\u94c17\u53f7\u7ebf", "station": "\u9f99\u9633\u8def", "stationNum": "32", "gaodeID": "BV10039851", "isRunning": 1}, "geometry": {"type": "Point", "coordinates": [121.557634, 31.203575]}}, {"type": "Feature", "properties": {"line": "\u5730\u94c17\u53f7\u7ebf", "station": "\u82b1\u6728\u8def", "stationNum": "33", "gaodeID": "BV10039850", "isRunning": 1}, "geometry": {"type": "Point", "coordinates": [121.562754, 31.211212]}}, {"type": "Feature", "properties": {"line": "\u5730\u94c18\u53f7\u7ebf", "station": "\u6c88\u675c\u516c\u8def", "stationNum": "1", "gaodeID": "BV10039921", "isRunning": 1}, "geometry": {"type": "Point", "coordinates": [121.512272, 31.061427]}}, {"type": "Feature", "properties": {"line": "\u5730\u94c18\u53f7\u7ebf", "station": "\u8054\u822a\u8def", "stationNum": "2", "gaodeID": "BV10039920", "isRunning": 1}, "geometry": {"type": "Point", "coordinates": [121.510594, 31.073567]}}, {"type": "Feature", "properties": {"line": "\u5730\u94c18\u53f7\u7ebf", "station": "\u6c5f\u6708\u8def", "stationNum": "3", "gaodeID": "BV10039919", "isRunning": 1}, "geometry": {"type": "Point", "coordinates": [121.508603, 31.084253]}}, {"type": "Feature", "properties": {"line": "\u5730\u94c18\u53f7\u7ebf", "station": "\u6d66\u6c5f\u9547", "stationNum": "4", "gaodeID": "BV10032461", "isRunning": 1}, "geometry": {"type": "Point", "coordinates": [121.506272, 31.09659]}}, {"type": "Feature", "properties": {"line": "\u5730\u94c18\u53f7\u7ebf", "station": "\u82a6\u6052\u8def", "stationNum": "5", "gaodeID": "BV10039918", "isRunning": 1}, "geometry": {"type": "Point", "coordinates": [121.498226, 31.119059]}}, {"type": "Feature", "properties": {"line": "\u5730\u94c18\u53f7\u7ebf", "station": "\u51cc\u5146\u65b0\u6751", "stationNum": "6", "gaodeID": "BV10032909", "isRunning": 1}, "geometry": {"type": "Point", "coordinates": [121.489663, 31.141301]}}, {"type": "Feature", "properties": {"line": "\u5730\u94c18\u53f7\u7ebf", "station": "\u4e1c\u65b9\u4f53\u80b2\u4e2d\u5fc3", "stationNum": "7", "gaodeID": "BV10032522", "isRunning": 1}, "geometry": {"type": "Point", "coordinates": [121.480304, 31.153366]}}, {"type": "Feature", "properties": {"line": "\u5730\u94c18\u53f7\u7ebf", "station": "\u6768\u601d", "stationNum": "8", "gaodeID": "BV10025899", "isRunning": 1}, "geometry": {"type": "Point", "coordinates": [121.493443, 31.161054]}}, {"type": "Feature", "properties": {"line": "\u5730\u94c18\u53f7\u7ebf", "station": "\u6210\u5c71\u8def", "stationNum": "9", "gaodeID": "BV10025911", "isRunning": 1}, "geometry": {"type": "Point", "coordinates": [121.496326, 31.170511]}}, {"type": "Feature", "properties": {"line": "\u5730\u94c18\u53f7\u7ebf", "station": "\u8000\u534e\u8def", "stationNum": "10", "gaodeID": "BV10039857", "isRunning": 1}, "geometry": {"type": "Point", "coordinates": [121.494605, 31.178513]}}, {"type": "Feature", "properties": {"line": "\u5730\u94c18\u53f7\u7ebf", "station": "\u4e2d\u534e\u827a\u672f\u5bab", "stationNum": "11", "gaodeID": "BV10039917", "isRunning": 1}, "geometry": {"type": "Point", "coordinates": [121.493626, 31.185242]}}, {"type": "Feature", "properties": {"line": "\u5730\u94c18\u53f7\u7ebf", "station": "\u897f\u85cf\u5357\u8def", "stationNum": "12", "gaodeID": "BV10039916", "isRunning": 1}, "geometry": {"type": "Point", "coordinates": [121.489555, 31.201967]}}, {"type": "Feature", "properties": {"line": "\u5730\u94c18\u53f7\u7ebf", "station": "\u9646\u5bb6\u6d5c\u8def", "stationNum": "13", "gaodeID": "BV10039882", "isRunning": 1}, "geometry": {"type": "Point", "coordinates": [121.486115, 31.211789]}}, {"type": "Feature", "properties": {"line": "\u5730\u94c18\u53f7\u7ebf", "station": "\u8001\u897f\u95e8", "stationNum": "14", "gaodeID": "BV10024873", "isRunning": 1}, "geometry": {"type": "Point", "coordinates": [121.482995, 31.218769]}}, {"type": "Feature", "properties": {"line": "\u5730\u94c18\u53f7\u7ebf", "station": "\u5927\u4e16\u754c", "stationNum": "15", "gaodeID": "BV10039915", "isRunning": 1}, "geometry": {"type": "Point", "coordinates": [121.479182, 31.227392]}}, {"type": "Feature", "properties": {"line": "\u5730\u94c18\u53f7\u7ebf", "station": "\u4eba\u6c11\u5e7f\u573a", "stationNum": "16", "gaodeID": "BV10024678", "isRunning": 1}, "geometry": {"type": "Point", "coordinates": [121.47549, 31.232873]}}, {"type": "Feature", "properties": {"line": "\u5730\u94c18\u53f7\u7ebf", "station": "\u66f2\u961c\u8def", "stationNum": "17", "gaodeID": "BV10039914", "isRunning": 1}, "geometry": {"type": "Point", "coordinates": [121.471543, 31.242307]}}, {"type": "Feature", "properties": {"line": "\u5730\u94c18\u53f7\u7ebf", "station": "\u4e2d\u5174\u8def", "stationNum": "18", "gaodeID": "BV10028891", "isRunning": 1}, "geometry": {"type": "Point", "coordinates": [121.469026, 31.253228]}}, {"type": "Feature", "properties": {"line": "\u5730\u94c18\u53f7\u7ebf", "station": "\u897f\u85cf\u5317\u8def", "stationNum": "19", "gaodeID": "BV10039913", "isRunning": 1}, "geometry": {"type": "Point", "coordinates": [121.468818, 31.263453]}}, {"type": "Feature", "properties": {"line": "\u5730\u94c18\u53f7\u7ebf", "station": "\u8679\u53e3\u8db3\u7403\u573a", "stationNum": "20", "gaodeID": "BV10024871", "isRunning": 1}, "geometry": {"type": "Point", "coordinates": [121.479327, 31.269891]}}, {"type": "Feature", "properties": {"line": "\u5730\u94c18\u53f7\u7ebf", "station": "\u66f2\u9633\u8def", "stationNum": "21", "gaodeID": "BV10039912", "isRunning": 1}, "geometry": {"type": "Point", "coordinates": [121.491138, 31.276524]}}, {"type": "Feature", "properties": {"line": "\u5730\u94c18\u53f7\u7ebf", "station": "\u56db\u5e73\u8def", "stationNum": "22", "gaodeID": "BV10025270", "isRunning": 1}, "geometry": {"type": "Point", "coordinates": [121.501488, 31.27488]}}, {"type": "Feature", "properties": {"line": "\u5730\u94c18\u53f7\u7ebf", "station": "\u978d\u5c71\u65b0\u6751", "stationNum": "23", "gaodeID": "BV10033521", "isRunning": 1}, "geometry": {"type": "Point", "coordinates": [121.509685, 31.273242]}}, {"type": "Feature", "properties": {"line": "\u5730\u94c18\u53f7\u7ebf", "station": "\u6c5f\u6d66\u8def", "stationNum": "24", "gaodeID": "BV10039911", "isRunning": 1}, "geometry": {"type": "Point", "coordinates": [121.518379, 31.274946]}}, {"type": "Feature", "properties": {"line": "\u5730\u94c18\u53f7\u7ebf", "station": "\u9ec4\u5174\u8def", "stationNum": "25", "gaodeID": "BV10039910", "isRunning": 1}, "geometry": {"type": "Point", "coordinates": [121.528401, 31.278814]}}, {"type": "Feature", "properties": {"line": "\u5730\u94c18\u53f7\u7ebf", "station": "\u5ef6\u5409\u4e2d\u8def", "stationNum": "26", "gaodeID": "BV10039909", "isRunning": 1}, "geometry": {"type": "Point", "coordinates": [121.534941, 31.288543]}}, {"type": "Feature", "properties": {"line": "\u5730\u94c18\u53f7\u7ebf", "station": "\u9ec4\u5174\u516c\u56ed", "stationNum": "27", "gaodeID": "BV10039908", "isRunning": 1}, "geometry": {"type": "Point", "coordinates": [121.533383, 31.295389]}}, {"type": "Feature", "properties": {"line": "\u5730\u94c18\u53f7\u7ebf", "station": "\u7fd4\u6bb7\u8def", "stationNum": "28", "gaodeID": "BV10030219", "isRunning": 1}, "geometry": {"type": "Point", "coordinates": [121.531974, 31.305002]}}, {"type": "Feature", "properties": {"line": "\u5730\u94c18\u53f7\u7ebf", "station": "\u5ae9\u6c5f\u8def", "stationNum": "29", "gaodeID": "BV10025282", "isRunning": 1}, "geometry": {"type": "Point", "coordinates": [121.531954, 31.314804]}}, {"type": "Feature", "properties": {"line": "\u5730\u94c18\u53f7\u7ebf", "station": "\u5e02\u5149\u8def", "stationNum": "30", "gaodeID": "BV10039907", "isRunning": 1}, "geometry": {"type": "Point", "coordinates": [121.531933, 31.322724]}}, {"type": "Feature", "properties": {"line": "\u5730\u94c19\u53f7\u7ebf", "station": "\u66f9\u8def", "stationNum": "1", "gaodeID": "BV10960991", "isRunning": 1}, "geometry": {"type": "Point", "coordinates": [121.683153, 31.271297]}}, {"type": "Feature", "properties": {"line": "\u5730\u94c19\u53f7\u7ebf", "station": "\u6c11\u96f7\u8def", "stationNum": "2", "gaodeID": "BV10960995", "isRunning": 1}, "geometry": {"type": "Point", "coordinates": [121.668125, 31.268335]}}, {"type": "Feature", "properties": {"line": "\u5730\u94c19\u53f7\u7ebf", "station": "\u987e\u5510\u8def", "stationNum": "3", "gaodeID": "BV10960992", "isRunning": 1}, "geometry": {"type": "Point", "coordinates": [121.656465, 31.266074]}}, {"type": "Feature", "properties": {"line": "\u5730\u94c19\u53f7\u7ebf", "station": "\u91d1\u6d77\u8def", "stationNum": "4", "gaodeID": "BV10039922", "isRunning": 1}, "geometry": {"type": "Point", "coordinates": [121.638966, 31.263806]}}, {"type": "Feature", "properties": {"line": "\u5730\u94c19\u53f7\u7ebf", "station": "\u91d1\u5409\u8def", "stationNum": "5", "gaodeID": "BV10960989", "isRunning": 1}, "geometry": {"type": "Point", "coordinates": [121.628741, 31.264304]}}, {"type": "Feature", "properties": {"line": "\u5730\u94c19\u53f7\u7ebf", "station": "\u91d1\u6865", "stationNum": "6", "gaodeID": "BV10960993", "isRunning": 1}, "geometry": {"type": "Point", "coordinates": [121.611336, 31.26085]}}, {"type": "Feature", "properties": {"line": "\u5730\u94c19\u53f7\u7ebf", "station": "\u53f0\u513f\u5e84\u8def", "stationNum": "7", "gaodeID": "BV10960990", "isRunning": 1}, "geometry": {"type": "Point", "coordinates": [121.597458, 31.252825]}}, {"type": "Feature", "properties": {"line": "\u5730\u94c19\u53f7\u7ebf", "station": "\u84dd\u5929\u8def", "stationNum": "8", "gaodeID": "BV10039954", "isRunning": 1}, "geometry": {"type": "Point", "coordinates": [121.577995, 31.241028]}}, {"type": "Feature", "properties": {"line": "\u5730\u94c19\u53f7\u7ebf", "station": "\u82b3\u7538\u8def", "stationNum": "9", "gaodeID": "BV10960994", "isRunning": 1}, "geometry": {"type": "Point", "coordinates": [121.558431, 31.231845]}}, {"type": "Feature", "properties": {"line": "\u5730\u94c19\u53f7\u7ebf", "station": "\u6768\u9ad8\u4e2d\u8def", "stationNum": "10", "gaodeID": "BV10039884", "isRunning": 1}, "geometry": {"type": "Point", "coordinates": [121.548664, 31.22751]}}, {"type": "Feature", "properties": {"line": "\u5730\u94c19\u53f7\u7ebf", "station": "\u4e16\u7eaa\u5927\u9053", "stationNum": "11", "gaodeID": "BV10039835", "isRunning": 1}, "geometry": {"type": "Point", "coordinates": [121.527213, 31.228682]}}, {"type": "Feature", "properties": {"line": "\u5730\u94c19\u53f7\u7ebf", "station": "\u5546\u57ce\u8def", "stationNum": "12", "gaodeID": "BV10039883", "isRunning": 1}, "geometry": {"type": "Point", "coordinates": [121.516275, 31.230258]}}, {"type": "Feature", "properties": {"line": "\u5730\u94c19\u53f7\u7ebf", "station": "\u5c0f\u5357\u95e8", "stationNum": "13", "gaodeID": "BV10030206", "isRunning": 1}, "geometry": {"type": "Point", "coordinates": [121.498398, 31.216866]}}, {"type": "Feature", "properties": {"line": "\u5730\u94c19\u53f7\u7ebf", "station": "\u9646\u5bb6\u6d5c\u8def", "stationNum": "14", "gaodeID": "BV10039882", "isRunning": 1}, "geometry": {"type": "Point", "coordinates": [121.486115, 31.211789]}}, {"type": "Feature", "properties": {"line": "\u5730\u94c19\u53f7\u7ebf", "station": "\u9a6c\u5f53\u8def", "stationNum": "15", "gaodeID": "BV10039785", "isRunning": 1}, "geometry": {"type": "Point", "coordinates": [121.477256, 31.20952]}}, {"type": "Feature", "properties": {"line": "\u5730\u94c19\u53f7\u7ebf", "station": "\u6253\u6d66\u6865", "stationNum": "16", "gaodeID": "BV10025891", "isRunning": 1}, "geometry": {"type": "Point", "coordinates": [121.468681, 31.206309]}}, {"type": "Feature", "properties": {"line": "\u5730\u94c19\u53f7\u7ebf", "station": "\u5609\u5584\u8def", "stationNum": "17", "gaodeID": "BV10039881", "isRunning": 1}, "geometry": {"type": "Point", "coordinates": [121.460704, 31.20282]}}, {"type": "Feature", "properties": {"line": "\u5730\u94c19\u53f7\u7ebf", "station": "\u8087\u5609\u6d5c\u8def", "stationNum": "18", "gaodeID": "BV10039861", "isRunning": 1}, "geometry": {"type": "Point", "coordinates": [121.450212, 31.199436]}}, {"type": "Feature", "properties": {"line": "\u5730\u94c19\u53f7\u7ebf", "station": "\u5f90\u5bb6\u6c47", "stationNum": "19", "gaodeID": "BV10029707", "isRunning": 1}, "geometry": {"type": "Point", "coordinates": [121.436603, 31.195514]}}, {"type": "Feature", "properties": {"line": "\u5730\u94c19\u53f7\u7ebf", "station": "\u5b9c\u5c71\u8def", "stationNum": "20", "gaodeID": "BV10039880", "isRunning": 1}, "geometry": {"type": "Point", "coordinates": [121.427393, 31.184244]}}, {"type": "Feature", "properties": {"line": "\u5730\u94c19\u53f7\u7ebf", "station": "\u6842\u6797\u8def", "stationNum": "21", "gaodeID": "BV10039879", "isRunning": 1}, "geometry": {"type": "Point", "coordinates": [121.418064, 31.174791]}}, {"type": "Feature", "properties": {"line": "\u5730\u94c19\u53f7\u7ebf", "station": "\u6f15\u6cb3\u6cfe\u5f00\u53d1\u533a", "stationNum": "22", "gaodeID": "BV10025213", "isRunning": 1}, "geometry": {"type": "Point", "coordinates": [121.397769, 31.170644]}}, {"type": "Feature", "properties": {"line": "\u5730\u94c19\u53f7\u7ebf", "station": "\u5408\u5ddd\u8def", "stationNum": "23", "gaodeID": "BV10039878", "isRunning": 1}, "geometry": {"type": "Point", "coordinates": [121.384772, 31.166542]}}, {"type": "Feature", "properties": {"line": "\u5730\u94c19\u53f7\u7ebf", "station": "\u661f\u4e2d\u8def", "stationNum": "24", "gaodeID": "BV10039877", "isRunning": 1}, "geometry": {"type": "Point", "coordinates": [121.368903, 31.158109]}}, {"type": "Feature", "properties": {"line": "\u5730\u94c19\u53f7\u7ebf", "station": "\u4e03\u5b9d", "stationNum": "25", "gaodeID": "BV10026129", "isRunning": 1}, "geometry": {"type": "Point", "coordinates": [121.349221, 31.155287]}}, {"type": "Feature", "properties": {"line": "\u5730\u94c19\u53f7\u7ebf", "station": "\u4e2d\u6625\u8def", "stationNum": "26", "gaodeID": "BV10039876", "isRunning": 1}, "geometry": {"type": "Point", "coordinates": [121.3377, 31.149415]}}, {"type": "Feature", "properties": {"line": "\u5730\u94c19\u53f7\u7ebf", "station": "\u4e5d\u4ead", "stationNum": "27", "gaodeID": "BV10039875", "isRunning": 1}, "geometry": {"type": "Point", "coordinates": [121.319423, 31.137252]}}, {"type": "Feature", "properties": {"line": "\u5730\u94c19\u53f7\u7ebf", "station": "\u6cd7\u6cfe", "stationNum": "28", "gaodeID": "BV10032803", "isRunning": 1}, "geometry": {"type": "Point", "coordinates": [121.260247, 31.118272]}}, {"type": "Feature", "properties": {"line": "\u5730\u94c19\u53f7\u7ebf", "station": "\u4f58\u5c71", "stationNum": "29", "gaodeID": "BV10035054", "isRunning": 1}, "geometry": {"type": "Point", "coordinates": [121.229686, 31.104097]}}, {"type": "Feature", "properties": {"line": "\u5730\u94c19\u53f7\u7ebf", "station": "\u6d1e\u6cfe", "stationNum": "30", "gaodeID": "BV10027857", "isRunning": 1}, "geometry": {"type": "Point", "coordinates": [121.230473, 31.084492]}}, {"type": "Feature", "properties": {"line": "\u5730\u94c19\u53f7\u7ebf", "station": "\u677e\u6c5f\u5927\u5b66\u57ce", "stationNum": "31", "gaodeID": "BV10027922", "isRunning": 1}, "geometry": {"type": "Point", "coordinates": [121.232577, 31.053984]}}, {"type": "Feature", "properties": {"line": "\u5730\u94c19\u53f7\u7ebf", "station": "\u677e\u6c5f\u65b0\u57ce", "stationNum": "32", "gaodeID": "BV10039874", "isRunning": 1}, "geometry": {"type": "Point", "coordinates": [121.230739, 31.030295]}}, {"type": "Feature", "properties": {"line": "\u5730\u94c19\u53f7\u7ebf", "station": "\u677e\u6c5f\u4f53\u80b2\u4e2d\u5fc3", "stationNum": "33", "gaodeID": "BV10039873", "isRunning": 1}, "geometry": {"type": "Point", "coordinates": [121.230546, 31.016006]}}, {"type": "Feature", "properties": {"line": "\u5730\u94c19\u53f7\u7ebf", "station": "\u9189\u767d\u6c60", "stationNum": "34", "gaodeID": "BV10037928", "isRunning": 1}, "geometry": {"type": "Point", "coordinates": [121.229361, 31.001125]}}, {"type": "Feature", "properties": {"line": "\u5730\u94c19\u53f7\u7ebf", "station": "\u677e\u6c5f\u5357\u7ad9", "stationNum": "35", "gaodeID": "BV10032786", "isRunning": 1}, "geometry": {"type": "Point", "coordinates": [121.230884, 30.984818]}}, {"type": "Feature", "properties": {"line": "\u5730\u94c110\u53f7\u7ebf", "station": "\u57fa\u9686\u8def", "stationNum": "1", "gaodeID": "BV10854614", "isRunning": 1}, "geometry": {"type": "Point", "coordinates": [121.590411, 31.351311]}}, {"type": "Feature", "properties": {"line": "\u5730\u94c110\u53f7\u7ebf", "station": "\u6e2f\u57ce\u8def", "stationNum": "2", "gaodeID": "BV10039849", "isRunning": 1}, "geometry": {"type": "Point", "coordinates": [121.575017, 31.353223]}}, {"type": "Feature", "properties": {"line": "\u5730\u94c110\u53f7\u7ebf", "station": "\u9ad8\u6865", "stationNum": "3", "gaodeID": "BV10854617", "isRunning": 1}, "geometry": {"type": "Point", "coordinates": [121.562971, 31.352622]}}, {"type": "Feature", "properties": {"line": "\u5730\u94c110\u53f7\u7ebf", "station": "\u9ad8\u6865\u897f", "stationNum": "4", "gaodeID": "BV10854615", "isRunning": 1}, "geometry": {"type": "Point", "coordinates": [121.54928, 31.351489]}}, {"type": "Feature", "properties": {"line": "\u5730\u94c110\u53f7\u7ebf", "station": "\u53cc\u6c5f\u8def", "stationNum": "5", "gaodeID": "BV10854616", "isRunning": 1}, "geometry": {"type": "Point", "coordinates": [121.539425, 31.353601]}}, {"type": "Feature", "properties": {"line": "\u5730\u94c110\u53f7\u7ebf", "station": "\u56fd\u5e06\u8def", "stationNum": "6", "gaodeID": "BV10854613", "isRunning": 1}, "geometry": {"type": "Point", "coordinates": [121.513168, 31.339548]}}, {"type": "Feature", "properties": {"line": "\u5730\u94c110\u53f7\u7ebf", "station": "\u65b0\u6c5f\u6e7e\u57ce", "stationNum": "7", "gaodeID": "BV10039979", "isRunning": 1}, "geometry": {"type": "Point", "coordinates": [121.506951, 31.328496]}}, {"type": "Feature", "properties": {"line": "\u5730\u94c110\u53f7\u7ebf", "station": "\u6bb7\u9ad8\u4e1c\u8def", "stationNum": "8", "gaodeID": "BV10039978", "isRunning": 1}, "geometry": {"type": "Point", "coordinates": [121.506797, 31.321768]}}, {"type": "Feature", "properties": {"line": "\u5730\u94c110\u53f7\u7ebf", "station": "\u4e09\u95e8\u8def", "stationNum": "9", "gaodeID": "BV10039977", "isRunning": 1}, "geometry": {"type": "Point", "coordinates": [121.50834, 31.313214]}}, {"type": "Feature", "properties": {"line": "\u5730\u94c110\u53f7\u7ebf", "station": "\u6c5f\u6e7e\u4f53\u80b2\u573a", "stationNum": "10", "gaodeID": "BV10039976", "isRunning": 1}, "geometry": {"type": "Point", "coordinates": [121.513314, 31.304293]}}, {"type": "Feature", "properties": {"line": "\u5730\u94c110\u53f7\u7ebf", "station": "\u4e94\u89d2\u573a", "stationNum": "11", "gaodeID": "BV10030403", "isRunning": 1}, "geometry": {"type": "Point", "coordinates": [121.514632, 31.298043]}}, {"type": "Feature", "properties": {"line": "\u5730\u94c110\u53f7\u7ebf", "station": "\u56fd\u6743\u8def", "stationNum": "12", "gaodeID": "BV10025272", "isRunning": 1}, "geometry": {"type": "Point", "coordinates": [121.510024, 31.289276]}}, {"type": "Feature", "properties": {"line": "\u5730\u94c110\u53f7\u7ebf", "station": "\u540c\u6d4e\u5927\u5b66", "stationNum": "13", "gaodeID": "BV10024697", "isRunning": 1}, "geometry": {"type": "Point", "coordinates": [121.506357, 31.282086]}}, {"type": "Feature", "properties": {"line": "\u5730\u94c110\u53f7\u7ebf", "station": "\u56db\u5e73\u8def", "stationNum": "14", "gaodeID": "BV10025270", "isRunning": 1}, "geometry": {"type": "Point", "coordinates": [121.501488, 31.27488]}}, {"type": "Feature", "properties": {"line": "\u5730\u94c110\u53f7\u7ebf", "station": "\u90ae\u7535\u65b0\u6751", "stationNum": "15", "gaodeID": "BV10024783", "isRunning": 1}, "geometry": {"type": "Point", "coordinates": [121.494247, 31.268431]}}, {"type": "Feature", "properties": {"line": "\u5730\u94c110\u53f7\u7ebf", "station": "\u6d77\u4f26\u8def", "stationNum": "16", "gaodeID": "BV10039975", "isRunning": 1}, "geometry": {"type": "Point", "coordinates": [121.488697, 31.259303]}}, {"type": "Feature", "properties": {"line": "\u5730\u94c110\u53f7\u7ebf", "station": "\u56db\u5ddd\u5317\u8def", "stationNum": "17", "gaodeID": "BV10039974", "isRunning": 1}, "geometry": {"type": "Point", "coordinates": [121.484208, 31.252035]}}, {"type": "Feature", "properties": {"line": "\u5730\u94c110\u53f7\u7ebf", "station": "\u5929\u6f7c\u8def", "stationNum": "18", "gaodeID": "BV10039933", "isRunning": 1}, "geometry": {"type": "Point", "coordinates": [121.482321, 31.243815]}}, {"type": "Feature", "properties": {"line": "\u5730\u94c110\u53f7\u7ebf", "station": "\u5357\u4eac\u4e1c\u8def", "stationNum": "19", "gaodeID": "BV10039900", "isRunning": 1}, "geometry": {"type": "Point", "coordinates": [121.484628, 31.238101]}}, {"type": "Feature", "properties": {"line": "\u5730\u94c110\u53f7\u7ebf", "station": "\u8c6b\u56ed", "stationNum": "20", "gaodeID": "BV10030419", "isRunning": 1}, "geometry": {"type": "Point", "coordinates": [121.487426, 31.228005]}}, {"type": "Feature", "properties": {"line": "\u5730\u94c110\u53f7\u7ebf", "station": "\u8001\u897f\u95e8", "stationNum": "21", "gaodeID": "BV10024873", "isRunning": 1}, "geometry": {"type": "Point", "coordinates": [121.483793, 31.219014]}}, {"type": "Feature", "properties": {"line": "\u5730\u94c110\u53f7\u7ebf", "station": "\u4e00\u5927\u4f1a\u5740\u00b7\u65b0\u5929\u5730", "stationNum": "22", "gaodeID": "BV10039784", "isRunning": 1}, "geometry": {"type": "Point", "coordinates": [121.475182, 31.216367]}}, {"type": "Feature", "properties": {"line": "\u5730\u94c110\u53f7\u7ebf", "station": "\u9655\u897f\u5357\u8def", "stationNum": "23", "gaodeID": "BV10039893", "isRunning": 1}, "geometry": {"type": "Point", "coordinates": [121.458744, 31.21515]}}, {"type": "Feature", "properties": {"line": "\u5730\u94c110\u53f7\u7ebf", "station": "\u4e0a\u6d77\u56fe\u4e66\u9986", "stationNum": "24", "gaodeID": "BV10039973", "isRunning": 1}, "geometry": {"type": "Point", "coordinates": [121.444363, 31.20796]}}, {"type": "Feature", "properties": {"line": "\u5730\u94c110\u53f7\u7ebf", "station": "\u4ea4\u901a\u5927\u5b66", "stationNum": "25", "gaodeID": "BV10025307", "isRunning": 1}, "geometry": {"type": "Point", "coordinates": [121.435253, 31.202213]}}, {"type": "Feature", "properties": {"line": "\u5730\u94c110\u53f7\u7ebf", "station": "\u8679\u6865\u8def", "stationNum": "26", "gaodeID": "BV10039972", "isRunning": 1}, "geometry": {"type": "Point", "coordinates": [121.422462, 31.196634]}}, {"type": "Feature", "properties": {"line": "\u5730\u94c110\u53f7\u7ebf", "station": "\u5b8b\u56ed\u8def", "stationNum": "27", "gaodeID": "BV10039971", "isRunning": 1}, "geometry": {"type": "Point", "coordinates": [121.41208, 31.19654]}}, {"type": "Feature", "properties": {"line": "\u5730\u94c110\u53f7\u7ebf", "station": "\u4f0a\u7281\u8def", "stationNum": "28", "gaodeID": "BV10039970", "isRunning": 1}, "geometry": {"type": "Point", "coordinates": [121.403899, 31.19888]}}, {"type": "Feature", "properties": {"line": "\u5730\u94c110\u53f7\u7ebf", "station": "\u6c34\u57ce\u8def", "stationNum": "29", "gaodeID": "BV10039969", "isRunning": 1}, "geometry": {"type": "Point", "coordinates": [121.392259, 31.199482]}}, {"type": "Feature", "properties": {"line": "\u5730\u94c110\u53f7\u7ebf", "station": "\u9f99\u6eaa\u8def", "stationNum": "30", "gaodeID": "BV10039968", "isRunning": 1}, "geometry": {"type": "Point", "coordinates": [121.380034, 31.1944]}}, {"type": "Feature", "properties": {"line": "\u5730\u94c110\u53f7\u7ebf", "station": "\u4e0a\u6d77\u52a8\u7269\u56ed", "stationNum": "31", "gaodeID": "BV10025388", "isRunning": 1}, "geometry": {"type": "Point", "coordinates": [121.368137, 31.190246]}}, {"type": "Feature", "properties": {"line": "\u5730\u94c110\u53f7\u7ebf", "station": "\u8679\u68651\u53f7\u822a\u7ad9\u697c", "stationNum": "32", "gaodeID": "BV10039980", "isRunning": 1}, "geometry": {"type": "Point", "coordinates": [121.347371, 31.191363]}}, {"type": "Feature", "properties": {"line": "\u5730\u94c110\u53f7\u7ebf", "station": "\u8679\u68652\u53f7\u822a\u7ad9\u697c", "stationNum": "33", "gaodeID": "BV10039904", "isRunning": 1}, "geometry": {"type": "Point", "coordinates": [121.3263, 31.194211]}}, {"type": "Feature", "properties": {"line": "\u5730\u94c110\u53f7\u7ebf", "station": "\u8679\u6865\u706b\u8f66\u7ad9", "stationNum": "34", "gaodeID": "BV10039905", "isRunning": 1}, "geometry": {"type": "Point", "coordinates": [121.31895, 31.194022]}}, {"type": "Feature", "properties": {"line": "\u5730\u94c110\u53f7\u7ebf(\u57fa\u9686\u8def--\u822a\u4e2d\u8def)", "station": "\u9f99\u67cf\u65b0\u6751", "stationNum": "31", "gaodeID": "BV10025472", "isRunning": 1}, "geometry": {"type": "Point", "coordinates": [121.37048, 31.176882]}}, {"type": "Feature", "properties": {"line": "\u5730\u94c110\u53f7\u7ebf(\u57fa\u9686\u8def--\u822a\u4e2d\u8def)", "station": "\u7d2b\u85e4\u8def", "stationNum": "32", "gaodeID": "BV10039967", "isRunning": 1}, "geometry": {"type": "Point", "coordinates": [121.364831, 31.169674]}}, {"type": "Feature", "properties": {"line": "\u5730\u94c110\u53f7\u7ebf(\u57fa\u9686\u8def--\u822a\u4e2d\u8def)", "station": "\u822a\u4e2d\u8def", "stationNum": "33", "gaodeID": "BV10039966", "isRunning": 1}, "geometry": {"type": "Point", "coordinates": [121.355336, 31.165417]}}, {"type": "Feature", "properties": {"line": "\u5730\u94c111\u53f7\u7ebf", "station": "\u8fea\u58eb\u5c3c", "stationNum": "1", "gaodeID": "BV10681608", "isRunning": 1}, "geometry": {"type": "Point", "coordinates": [121.667959, 31.141263]}}, {"type": "Feature", "properties": {"line": "\u5730\u94c111\u53f7\u7ebf", "station": "\u5eb7\u65b0\u516c\u8def", "stationNum": "2", "gaodeID": "BV10538982", "isRunning": 1}, "geometry": {"type": "Point", "coordinates": [121.617199, 31.130441]}}, {"type": "Feature", "properties": {"line": "\u5730\u94c111\u53f7\u7ebf", "station": "\u79c0\u6cbf\u8def", "stationNum": "3", "gaodeID": "BV10538984", "isRunning": 1}, "geometry": {"type": "Point", "coordinates": [121.59839, 31.138128]}}, {"type": "Feature", "properties": {"line": "\u5730\u94c111\u53f7\u7ebf", "station": "\u7f57\u5c71\u8def", "stationNum": "4", "gaodeID": "BV10039818", "isRunning": 1}, "geometry": {"type": "Point", "coordinates": [121.593152, 31.153259]}}, {"type": "Feature", "properties": {"line": "\u5730\u94c111\u53f7\u7ebf", "station": "\u5fa1\u6865", "stationNum": "5", "gaodeID": "BV10039965", "isRunning": 1}, "geometry": {"type": "Point", "coordinates": [121.570914, 31.158131]}}, {"type": "Feature", "properties": {"line": "\u5730\u94c111\u53f7\u7ebf", "station": "\u6d66\u4e09\u8def", "stationNum": "6", "gaodeID": "BV10039964", "isRunning": 1}, "geometry": {"type": "Point", "coordinates": [121.539005, 31.150861]}}, {"type": "Feature", "properties": {"line": "\u5730\u94c111\u53f7\u7ebf", "station": "\u4e09\u6797\u4e1c", "stationNum": "7", "gaodeID": "BV10039963", "isRunning": 1}, "geometry": {"type": "Point", "coordinates": [121.522999, 31.146459]}}, {"type": "Feature", "properties": {"line": "\u5730\u94c111\u53f7\u7ebf", "station": "\u4e09\u6797", "stationNum": "8", "gaodeID": "BV10028225", "isRunning": 1}, "geometry": {"type": "Point", "coordinates": [121.511796, 31.143224]}}, {"type": "Feature", "properties": {"line": "\u5730\u94c111\u53f7\u7ebf", "station": "\u4e1c\u65b9\u4f53\u80b2\u4e2d\u5fc3", "stationNum": "9", "gaodeID": "BV10032522", "isRunning": 1}, "geometry": {"type": "Point", "coordinates": [121.480304, 31.153366]}}, {"type": "Feature", "properties": {"line": "\u5730\u94c111\u53f7\u7ebf", "station": "\u9f99\u8000\u8def", "stationNum": "10", "gaodeID": "BV10039807", "isRunning": 1}, "geometry": {"type": "Point", "coordinates": [121.459702, 31.15972]}}, {"type": "Feature", "properties": {"line": "\u5730\u94c111\u53f7\u7ebf", "station": "\u4e91\u9526\u8def", "stationNum": "11", "gaodeID": "BV10039806", "isRunning": 1}, "geometry": {"type": "Point", "coordinates": [121.458519, 31.166488]}}, {"type": "Feature", "properties": {"line": "\u5730\u94c111\u53f7\u7ebf", "station": "\u9f99\u534e", "stationNum": "12", "gaodeID": "BV10024943", "isRunning": 1}, "geometry": {"type": "Point", "coordinates": [121.452958, 31.172672]}}, {"type": "Feature", "properties": {"line": "\u5730\u94c111\u53f7\u7ebf", "station": "\u4e0a\u6d77\u6e38\u6cf3\u9986", "stationNum": "13", "gaodeID": "BV10024941", "isRunning": 1}, "geometry": {"type": "Point", "coordinates": [121.441424, 31.179123]}}, {"type": "Feature", "properties": {"line": "\u5730\u94c111\u53f7\u7ebf", "station": "\u5f90\u5bb6\u6c47", "stationNum": "14", "gaodeID": "BV10029707", "isRunning": 1}, "geometry": {"type": "Point", "coordinates": [121.436182, 31.194437]}}, {"type": "Feature", "properties": {"line": "\u5730\u94c111\u53f7\u7ebf", "station": "\u4ea4\u901a\u5927\u5b66", "stationNum": "15", "gaodeID": "BV10025307", "isRunning": 1}, "geometry": {"type": "Point", "coordinates": [121.435253, 31.202213]}}, {"type": "Feature", "properties": {"line": "\u5730\u94c111\u53f7\u7ebf", "station": "\u6c5f\u82cf\u8def", "stationNum": "16", "gaodeID": "BV10039805", "isRunning": 1}, "geometry": {"type": "Point", "coordinates": [121.430635, 31.220408]}}, {"type": "Feature", "properties": {"line": "\u5730\u94c111\u53f7\u7ebf", "station": "\u9686\u5fb7\u8def", "stationNum": "17", "gaodeID": "BV10039777", "isRunning": 1}, "geometry": {"type": "Point", "coordinates": [121.423576, 31.230509]}}, {"type": "Feature", "properties": {"line": "\u5730\u94c111\u53f7\u7ebf", "station": "\u66f9\u6768\u8def", "stationNum": "18", "gaodeID": "BV10039804", "isRunning": 1}, "geometry": {"type": "Point", "coordinates": [121.417562, 31.237824]}}, {"type": "Feature", "properties": {"line": "\u5730\u94c111\u53f7\u7ebf", "station": "\u67ab\u6865\u8def", "stationNum": "19", "gaodeID": "BV10039803", "isRunning": 1}, "geometry": {"type": "Point", "coordinates": [121.411402, 31.24185]}}, {"type": "Feature", "properties": {"line": "\u5730\u94c111\u53f7\u7ebf", "station": "\u771f\u5982", "stationNum": "20", "gaodeID": "BV10039802", "isRunning": 1}, "geometry": {"type": "Point", "coordinates": [121.407219, 31.250767]}}, {"type": "Feature", "properties": {"line": "\u5730\u94c111\u53f7\u7ebf", "station": "\u4e0a\u6d77\u897f\u7ad9", "stationNum": "21", "gaodeID": "BV10024610", "isRunning": 1}, "geometry": {"type": "Point", "coordinates": [121.400926, 31.262693]}}, {"type": "Feature", "properties": {"line": "\u5730\u94c111\u53f7\u7ebf", "station": "\u674e\u5b50\u56ed", "stationNum": "22", "gaodeID": "BV10039801", "isRunning": 1}, "geometry": {"type": "Point", "coordinates": [121.389969, 31.26902]}}, {"type": "Feature", "properties": {"line": "\u5730\u94c111\u53f7\u7ebf", "station": "\u7941\u8fde\u5c71\u8def", "stationNum": "23", "gaodeID": "BV10030224", "isRunning": 1}, "geometry": {"type": "Point", "coordinates": [121.376035, 31.27165]}}, {"type": "Feature", "properties": {"line": "\u5730\u94c111\u53f7\u7ebf", "station": "\u6b66\u5a01\u8def", "stationNum": "24", "gaodeID": "BV10039800", "isRunning": 1}, "geometry": {"type": "Point", "coordinates": [121.364678, 31.276646]}}, {"type": "Feature", "properties": {"line": "\u5730\u94c111\u53f7\u7ebf", "station": "\u6843\u6d66\u65b0\u6751", "stationNum": "25", "gaodeID": "BV10025258", "isRunning": 1}, "geometry": {"type": "Point", "coordinates": [121.349623, 31.281603]}}, {"type": "Feature", "properties": {"line": "\u5730\u94c111\u53f7\u7ebf", "station": "\u5357\u7fd4", "stationNum": "26", "gaodeID": "BV10039799", "isRunning": 1}, "geometry": {"type": "Point", "coordinates": [121.323141, 31.296952]}}, {"type": "Feature", "properties": {"line": "\u5730\u94c111\u53f7\u7ebf", "station": "\u9648\u7fd4\u516c\u8def", "stationNum": "27", "gaodeID": "BV11277021", "isRunning": 1}, "geometry": {"type": "Point", "coordinates": [121.306787, 31.306484]}}, {"type": "Feature", "properties": {"line": "\u5730\u94c111\u53f7\u7ebf", "station": "\u9a6c\u9646", "stationNum": "28", "gaodeID": "BV10031076", "isRunning": 1}, "geometry": {"type": "Point", "coordinates": [121.276906, 31.319675]}}, {"type": "Feature", "properties": {"line": "\u5730\u94c111\u53f7\u7ebf", "station": "\u5609\u5b9a\u65b0\u57ce", "stationNum": "29", "gaodeID": "BV10039612", "isRunning": 1}, "geometry": {"type": "Point", "coordinates": [121.254294, 31.330062]}}, {"type": "Feature", "properties": {"line": "\u5730\u94c111\u53f7\u7ebf", "station": "\u767d\u94f6\u8def", "stationNum": "30", "gaodeID": "BV10039962", "isRunning": 1}, "geometry": {"type": "Point", "coordinates": [121.24535, 31.345359]}}, {"type": "Feature", "properties": {"line": "\u5730\u94c111\u53f7\u7ebf", "station": "\u5609\u5b9a\u897f", "stationNum": "31", "gaodeID": "BV10039961", "isRunning": 1}, "geometry": {"type": "Point", "coordinates": [121.227855, 31.377107]}}, {"type": "Feature", "properties": {"line": "\u5730\u94c111\u53f7\u7ebf", "station": "\u5609\u5b9a\u5317", "stationNum": "32", "gaodeID": "BV10039960", "isRunning": 1}, "geometry": {"type": "Point", "coordinates": [121.23735, 31.391549]}}, {"type": "Feature", "properties": {"line": "\u5730\u94c111\u53f7\u7ebf(\u8fea\u58eb\u5c3c--\u82b1\u6865)", "station": "\u4e0a\u6d77\u8d5b\u8f66\u573a", "stationNum": "30", "gaodeID": "BV10033820", "isRunning": 1}, "geometry": {"type": "Point", "coordinates": [121.226098, 31.331898]}}, {"type": "Feature", "properties": {"line": "\u5730\u94c111\u53f7\u7ebf(\u8fea\u58eb\u5c3c--\u82b1\u6865)", "station": "\u660c\u5409\u4e1c\u8def", "stationNum": "31", "gaodeID": "BV10039798", "isRunning": 1}, "geometry": {"type": "Point", "coordinates": [121.200384, 31.29362]}}, {"type": "Feature", "properties": {"line": "\u5730\u94c111\u53f7\u7ebf(\u8fea\u58eb\u5c3c--\u82b1\u6865)", "station": "\u4e0a\u6d77\u6c7d\u8f66\u57ce", "stationNum": "32", "gaodeID": "BV10039797", "isRunning": 1}, "geometry": {"type": "Point", "coordinates": [121.180742, 31.285403]}}, {"type": "Feature", "properties": {"line": "\u5730\u94c111\u53f7\u7ebf(\u8fea\u58eb\u5c3c--\u82b1\u6865)", "station": "\u5b89\u4ead", "stationNum": "33", "gaodeID": "BV10026750", "isRunning": 1}, "geometry": {"type": "Point", "coordinates": [121.161985, 31.28849]}}, {"type": "Feature", "properties": {"line": "\u5730\u94c111\u53f7\u7ebf(\u8fea\u58eb\u5c3c--\u82b1\u6865)", "station": "\u5146\u4e30\u8def", "stationNum": "34", "gaodeID": "BV10470899", "isRunning": 1}, "geometry": {"type": "Point", "coordinates": [121.150315, 31.289048]}}, {"type": "Feature", "properties": {"line": "\u5730\u94c111\u53f7\u7ebf(\u8fea\u58eb\u5c3c--\u82b1\u6865)", "station": "\u5149\u660e\u8def", "stationNum": "35", "gaodeID": "BV10470893", "isRunning": 1}, "geometry": {"type": "Point", "coordinates": [121.117186, 31.29621]}}, {"type": "Feature", "properties": {"line": "\u5730\u94c111\u53f7\u7ebf(\u8fea\u58eb\u5c3c--\u82b1\u6865)", "station": "\u82b1\u6865", "stationNum": "36", "gaodeID": "BV10470890", "isRunning": 1}, "geometry": {"type": "Point", "coordinates": [121.104407, 31.29879]}}, {"type": "Feature", "properties": {"line": "\u5730\u94c112\u53f7\u7ebf", "station": "\u4e03\u8398\u8def", "stationNum": "1", "gaodeID": "BV10037368", "isRunning": 1}, "geometry": {"type": "Point", "coordinates": [121.362461, 31.131634]}}, {"type": "Feature", "properties": {"line": "\u5730\u94c112\u53f7\u7ebf", "station": "\u8679\u8398\u8def", "stationNum": "2", "gaodeID": "BV10039934", "isRunning": 1}, "geometry": {"type": "Point", "coordinates": [121.380349, 31.137452]}}, {"type": "Feature", "properties": {"line": "\u5730\u94c112\u53f7\u7ebf", "station": "\u987e\u6234\u8def", "stationNum": "3", "gaodeID": "BV10039935", "isRunning": 1}, "geometry": {"type": "Point", "coordinates": [121.39185, 31.140888]}}, {"type": "Feature", "properties": {"line": "\u5730\u94c112\u53f7\u7ebf", "station": "\u4e1c\u5170\u8def", "stationNum": "4", "gaodeID": "BV10039936", "isRunning": 1}, "geometry": {"type": "Point", "coordinates": [121.391919, 31.155826]}}, {"type": "Feature", "properties": {"line": "\u5730\u94c112\u53f7\u7ebf", "station": "\u8679\u6885\u8def", "stationNum": "5", "gaodeID": "BV10039937", "isRunning": 1}, "geometry": {"type": "Point", "coordinates": [121.39725, 31.16035]}}, {"type": "Feature", "properties": {"line": "\u5730\u94c112\u53f7\u7ebf", "station": "\u8679\u6f15\u8def", "stationNum": "6", "gaodeID": "BV10607588", "isRunning": 1}, "geometry": {"type": "Point", "coordinates": [121.410553, 31.164033]}}, {"type": "Feature", "properties": {"line": "\u5730\u94c112\u53f7\u7ebf", "station": "\u6842\u6797\u516c\u56ed", "stationNum": "7", "gaodeID": "BV10024842", "isRunning": 1}, "geometry": {"type": "Point", "coordinates": [121.419647, 31.166985]}}, {"type": "Feature", "properties": {"line": "\u5730\u94c112\u53f7\u7ebf", "station": "\u6f15\u5b9d\u8def", "stationNum": "8", "gaodeID": "BV10026584", "isRunning": 1}, "geometry": {"type": "Point", "coordinates": [121.433143, 31.168344]}}, {"type": "Feature", "properties": {"line": "\u5730\u94c112\u53f7\u7ebf", "station": "\u9f99\u6f15\u8def", "stationNum": "9", "gaodeID": "BV10039938", "isRunning": 1}, "geometry": {"type": "Point", "coordinates": [121.443462, 31.170342]}}, {"type": "Feature", "properties": {"line": "\u5730\u94c112\u53f7\u7ebf", "station": "\u9f99\u534e", "stationNum": "10", "gaodeID": "BV10024943", "isRunning": 1}, "geometry": {"type": "Point", "coordinates": [121.452707, 31.17504]}}, {"type": "Feature", "properties": {"line": "\u5730\u94c112\u53f7\u7ebf", "station": "\u9f99\u534e\u4e2d\u8def", "stationNum": "11", "gaodeID": "BV10039859", "isRunning": 1}, "geometry": {"type": "Point", "coordinates": [121.456041, 31.184367]}}, {"type": "Feature", "properties": {"line": "\u5730\u94c112\u53f7\u7ebf", "station": "\u5927\u6728\u6865\u8def", "stationNum": "12", "gaodeID": "BV10039940", "isRunning": 1}, "geometry": {"type": "Point", "coordinates": [121.464014, 31.193655]}}, {"type": "Feature", "properties": {"line": "\u5730\u94c112\u53f7\u7ebf", "station": "\u5609\u5584\u8def", "stationNum": "13", "gaodeID": "BV10039881", "isRunning": 1}, "geometry": {"type": "Point", "coordinates": [121.461074, 31.202008]}}, {"type": "Feature", "properties": {"line": "\u5730\u94c112\u53f7\u7ebf", "station": "\u9655\u897f\u5357\u8def", "stationNum": "14", "gaodeID": "BV10039893", "isRunning": 1}, "geometry": {"type": "Point", "coordinates": [121.459405, 31.216096]}}, {"type": "Feature", "properties": {"line": "\u5730\u94c112\u53f7\u7ebf", "station": "\u5357\u4eac\u897f\u8def", "stationNum": "15", "gaodeID": "BV10039782", "isRunning": 1}, "geometry": {"type": "Point", "coordinates": [121.459493, 31.227941]}}, {"type": "Feature", "properties": {"line": "\u5730\u94c112\u53f7\u7ebf", "station": "\u6c49\u4e2d\u8def", "stationNum": "16", "gaodeID": "BV10030213", "isRunning": 1}, "geometry": {"type": "Point", "coordinates": [121.458927, 31.240589]}}, {"type": "Feature", "properties": {"line": "\u5730\u94c112\u53f7\u7ebf", "station": "\u66f2\u961c\u8def", "stationNum": "17", "gaodeID": "BV10039914", "isRunning": 1}, "geometry": {"type": "Point", "coordinates": [121.471543, 31.242307]}}, {"type": "Feature", "properties": {"line": "\u5730\u94c112\u53f7\u7ebf", "station": "\u5929\u6f7c\u8def", "stationNum": "18", "gaodeID": "BV10039933", "isRunning": 1}, "geometry": {"type": "Point", "coordinates": [121.482321, 31.243815]}}, {"type": "Feature", "properties": {"line": "\u5730\u94c112\u53f7\u7ebf", "station": "\u56fd\u9645\u5ba2\u8fd0\u4e2d\u5fc3", "stationNum": "19", "gaodeID": "BV10039932", "isRunning": 1}, "geometry": {"type": "Point", "coordinates": [121.498158, 31.25016]}}, {"type": "Feature", "properties": {"line": "\u5730\u94c112\u53f7\u7ebf", "station": "\u63d0\u7bee\u6865", "stationNum": "20", "gaodeID": "BV10024879", "isRunning": 1}, "geometry": {"type": "Point", "coordinates": [121.506801, 31.253518]}}, {"type": "Feature", "properties": {"line": "\u5730\u94c112\u53f7\u7ebf", "station": "\u5927\u8fde\u8def", "stationNum": "21", "gaodeID": "BV10039931", "isRunning": 1}, "geometry": {"type": "Point", "coordinates": [121.513088, 31.257938]}}, {"type": "Feature", "properties": {"line": "\u5730\u94c112\u53f7\u7ebf", "station": "\u6c5f\u6d66\u516c\u56ed", "stationNum": "22", "gaodeID": "BV10039930", "isRunning": 1}, "geometry": {"type": "Point", "coordinates": [121.523697, 31.26457]}}, {"type": "Feature", "properties": {"line": "\u5730\u94c112\u53f7\u7ebf", "station": "\u5b81\u56fd\u8def", "stationNum": "23", "gaodeID": "BV10039929", "isRunning": 1}, "geometry": {"type": "Point", "coordinates": [121.532352, 31.268574]}}, {"type": "Feature", "properties": {"line": "\u5730\u94c112\u53f7\u7ebf", "station": "\u9686\u660c\u8def", "stationNum": "24", "gaodeID": "BV10039928", "isRunning": 1}, "geometry": {"type": "Point", "coordinates": [121.544692, 31.275213]}}, {"type": "Feature", "properties": {"line": "\u5730\u94c112\u53f7\u7ebf", "station": "\u7231\u56fd\u8def", "stationNum": "25", "gaodeID": "BV10039927", "isRunning": 1}, "geometry": {"type": "Point", "coordinates": [121.552655, 31.279788]}}, {"type": "Feature", "properties": {"line": "\u5730\u94c112\u53f7\u7ebf", "station": "\u590d\u5174\u5c9b", "stationNum": "26", "gaodeID": "BV10025457", "isRunning": 1}, "geometry": {"type": "Point", "coordinates": [121.561315, 31.280779]}}, {"type": "Feature", "properties": {"line": "\u5730\u94c112\u53f7\u7ebf", "station": "\u4e1c\u9646\u8def", "stationNum": "27", "gaodeID": "BV10039926", "isRunning": 1}, "geometry": {"type": "Point", "coordinates": [121.579124, 31.282533]}}, {"type": "Feature", "properties": {"line": "\u5730\u94c112\u53f7\u7ebf", "station": "\u5de8\u5cf0\u8def", "stationNum": "28", "gaodeID": "BV10039843", "isRunning": 1}, "geometry": {"type": "Point", "coordinates": [121.589862, 31.280042]}}, {"type": "Feature", "properties": {"line": "\u5730\u94c112\u53f7\u7ebf", "station": "\u6768\u9ad8\u5317\u8def", "stationNum": "29", "gaodeID": "BV10039925", "isRunning": 1}, "geometry": {"type": "Point", "coordinates": [121.60296, 31.280092]}}, {"type": "Feature", "properties": {"line": "\u5730\u94c112\u53f7\u7ebf", "station": "\u91d1\u4eac\u8def", "stationNum": "30", "gaodeID": "BV10039924", "isRunning": 1}, "geometry": {"type": "Point", "coordinates": [121.615477, 31.279823]}}, {"type": "Feature", "properties": {"line": "\u5730\u94c112\u53f7\u7ebf", "station": "\u7533\u6c5f\u8def", "stationNum": "31", "gaodeID": "BV10039923", "isRunning": 1}, "geometry": {"type": "Point", "coordinates": [121.626863, 31.280231]}}, {"type": "Feature", "properties": {"line": "\u5730\u94c112\u53f7\u7ebf", "station": "\u91d1\u6d77\u8def", "stationNum": "32", "gaodeID": "BV10039922", "isRunning": 1}, "geometry": {"type": "Point", "coordinates": [121.638629, 31.263141]}}, {"type": "Feature", "properties": {"line": "\u5730\u94c112\u53f7\u7ebf\u897f\u5ef6\u7ebf(\u4e03\u8398\u8def--\u6d1e\u6cfe)", "station": "\u573a\u4e1c\u8def", "stationNum": "2", "gaodeID": "BV09064131", "isRunning": 0}, "geometry": {"type": "Point", "coordinates": [121.357706, 31.099759]}}, {"type": "Feature", "properties": {"line": "\u5730\u94c112\u53f7\u7ebf\u897f\u5ef6\u7ebf(\u4e03\u8398\u8def--\u6d1e\u6cfe)", "station": "\u573a\u897f\u8def", "stationNum": "3", "gaodeID": "BV09064130", "isRunning": 0}, "geometry": {"type": "Point", "coordinates": [121.339855, 31.093292]}}, {"type": "Feature", "properties": {"line": "\u5730\u94c112\u53f7\u7ebf\u897f\u5ef6\u7ebf(\u4e03\u8398\u8def--\u6d1e\u6cfe)", "station": "\u79d1\u6280\u56ed", "stationNum": "4", "gaodeID": "BV09064133", "isRunning": 0}, "geometry": {"type": "Point", "coordinates": [121.324492, 31.092256]}}, {"type": "Feature", "properties": {"line": "\u5730\u94c112\u53f7\u7ebf\u897f\u5ef6\u7ebf(\u4e03\u8398\u8def--\u6d1e\u6cfe)", "station": "\u6caa\u677e\u516c\u8def", "stationNum": "5", "gaodeID": "BV09064132", "isRunning": 0}, "geometry": {"type": "Point", "coordinates": [121.268997, 31.092698]}}, {"type": "Feature", "properties": {"line": "\u5730\u94c112\u53f7\u7ebf\u897f\u5ef6\u7ebf(\u4e03\u8398\u8def--\u6d1e\u6cfe)", "station": "\u5218\u4e94\u516c\u8def", "stationNum": "6", "gaodeID": "BV09064134", "isRunning": 0}, "geometry": {"type": "Point", "coordinates": [121.248864, 31.090267]}}, {"type": "Feature", "properties": {"line": "\u5730\u94c112\u53f7\u7ebf\u897f\u5ef6\u7ebf(\u4e03\u8398\u8def--\u6d1e\u6cfe)", "station": "\u6d1e\u6cfe", "stationNum": "7", "gaodeID": "BV10027857", "isRunning": 0}, "geometry": {"type": "Point", "coordinates": [121.231422, 31.086422]}}, {"type": "Feature", "properties": {"line": "\u5730\u94c113\u53f7\u7ebf", "station": "\u91d1\u8fd0\u8def", "stationNum": "1", "gaodeID": "BV10039812", "isRunning": 1}, "geometry": {"type": "Point", "coordinates": [121.319308, 31.240986]}}, {"type": "Feature", "properties": {"line": "\u5730\u94c113\u53f7\u7ebf", "station": "\u91d1\u6c99\u6c5f\u897f\u8def", "stationNum": "2", "gaodeID": "BV10039811", "isRunning": 1}, "geometry": {"type": "Point", "coordinates": [121.335156, 31.241152]}}, {"type": "Feature", "properties": {"line": "\u5730\u94c113\u53f7\u7ebf", "station": "\u4e30\u5e84", "stationNum": "3", "gaodeID": "BV10030508", "isRunning": 1}, "geometry": {"type": "Point", "coordinates": [121.355141, 31.242553]}}, {"type": "Feature", "properties": {"line": "\u5730\u94c113\u53f7\u7ebf", "station": "\u7941\u8fde\u5c71\u5357\u8def", "stationNum": "4", "gaodeID": "BV10039810", "isRunning": 1}, "geometry": {"type": "Point", "coordinates": [121.367275, 31.237625]}}, {"type": "Feature", "properties": {"line": "\u5730\u94c113\u53f7\u7ebf", "station": "\u771f\u5317\u8def", "stationNum": "5", "gaodeID": "BV10039809", "isRunning": 1}, "geometry": {"type": "Point", "coordinates": [121.381948, 31.232235]}}, {"type": "Feature", "properties": {"line": "\u5730\u94c113\u53f7\u7ebf", "station": "\u5927\u6e21\u6cb3\u8def", "stationNum": "6", "gaodeID": "BV10039808", "isRunning": 1}, "geometry": {"type": "Point", "coordinates": [121.394431, 31.231752]}}, {"type": "Feature", "properties": {"line": "\u5730\u94c113\u53f7\u7ebf", "station": "\u91d1\u6c99\u6c5f\u8def", "stationNum": "7", "gaodeID": "BV10039776", "isRunning": 1}, "geometry": {"type": "Point", "coordinates": [121.411762, 31.231174]}}, {"type": "Feature", "properties": {"line": "\u5730\u94c113\u53f7\u7ebf", "station": "\u9686\u5fb7\u8def", "stationNum": "8", "gaodeID": "BV10039777", "isRunning": 1}, "geometry": {"type": "Point", "coordinates": [121.423576, 31.230509]}}, {"type": "Feature", "properties": {"line": "\u5730\u94c113\u53f7\u7ebf", "station": "\u6b66\u5b81\u8def", "stationNum": "9", "gaodeID": "BV10039778", "isRunning": 1}, "geometry": {"type": "Point", "coordinates": [121.430504, 31.234346]}}, {"type": "Feature", "properties": {"line": "\u5730\u94c113\u53f7\u7ebf", "station": "\u957f\u5bff\u8def", "stationNum": "10", "gaodeID": "BV10039779", "isRunning": 1}, "geometry": {"type": "Point", "coordinates": [121.438272, 31.24086]}}, {"type": "Feature", "properties": {"line": "\u5730\u94c113\u53f7\u7ebf", "station": "\u6c5f\u5b81\u8def", "stationNum": "11", "gaodeID": "BV10039780", "isRunning": 1}, "geometry": {"type": "Point", "coordinates": [121.44483, 31.244282]}}, {"type": "Feature", "properties": {"line": "\u5730\u94c113\u53f7\u7ebf", "station": "\u6c49\u4e2d\u8def", "stationNum": "12", "gaodeID": "BV10030213", "isRunning": 1}, "geometry": {"type": "Point", "coordinates": [121.458927, 31.240589]}}, {"type": "Feature", "properties": {"line": "\u5730\u94c113\u53f7\u7ebf", "station": "\u81ea\u7136\u535a\u7269\u9986", "stationNum": "13", "gaodeID": "BV10039781", "isRunning": 1}, "geometry": {"type": "Point", "coordinates": [121.462366, 31.236451]}}, {"type": "Feature", "properties": {"line": "\u5730\u94c113\u53f7\u7ebf", "station": "\u5357\u4eac\u897f\u8def", "stationNum": "14", "gaodeID": "BV10039782", "isRunning": 1}, "geometry": {"type": "Point", "coordinates": [121.462434, 31.22857]}}, {"type": "Feature", "properties": {"line": "\u5730\u94c113\u53f7\u7ebf", "station": "\u6dee\u6d77\u4e2d\u8def", "stationNum": "15", "gaodeID": "BV10039783", "isRunning": 1}, "geometry": {"type": "Point", "coordinates": [121.464363, 31.220056]}}, {"type": "Feature", "properties": {"line": "\u5730\u94c113\u53f7\u7ebf", "station": "\u4e00\u5927\u4f1a\u5740\u00b7\u65b0\u5929\u5730", "stationNum": "16", "gaodeID": "BV10039784", "isRunning": 1}, "geometry": {"type": "Point", "coordinates": [121.47456, 31.215758]}}, {"type": "Feature", "properties": {"line": "\u5730\u94c113\u53f7\u7ebf", "station": "\u9a6c\u5f53\u8def", "stationNum": "17", "gaodeID": "BV10039785", "isRunning": 1}, "geometry": {"type": "Point", "coordinates": [121.476209, 31.209931]}}, {"type": "Feature", "properties": {"line": "\u5730\u94c113\u53f7\u7ebf", "station": "\u4e16\u535a\u4f1a\u535a\u7269\u9986", "stationNum": "18", "gaodeID": "BV10592246", "isRunning": 1}, "geometry": {"type": "Point", "coordinates": [121.481592, 31.197572]}}, {"type": "Feature", "properties": {"line": "\u5730\u94c113\u53f7\u7ebf", "station": "\u4e16\u535a\u5927\u9053", "stationNum": "19", "gaodeID": "BV10029559", "isRunning": 1}, "geometry": {"type": "Point", "coordinates": [121.484313, 31.182789]}}, {"type": "Feature", "properties": {"line": "\u5730\u94c113\u53f7\u7ebf", "station": "\u957f\u6e05\u8def", "stationNum": "20", "gaodeID": "BV10039786", "isRunning": 1}, "geometry": {"type": "Point", "coordinates": [121.488524, 31.174008]}}, {"type": "Feature", "properties": {"line": "\u5730\u94c113\u53f7\u7ebf", "station": "\u6210\u5c71\u8def", "stationNum": "21", "gaodeID": "BV10025911", "isRunning": 1}, "geometry": {"type": "Point", "coordinates": [121.497142, 31.171445]}}, {"type": "Feature", "properties": {"line": "\u5730\u94c113\u53f7\u7ebf", "station": "\u4e1c\u660e\u8def", "stationNum": "22", "gaodeID": "BV10039787", "isRunning": 1}, "geometry": {"type": "Point", "coordinates": [121.512226, 31.172852]}}, {"type": "Feature", "properties": {"line": "\u5730\u94c113\u53f7\u7ebf", "station": "\u534e\u9e4f\u8def", "stationNum": "23", "gaodeID": "BV10946926", "isRunning": 1}, "geometry": {"type": "Point", "coordinates": [121.526567, 31.176276]}}, {"type": "Feature", "properties": {"line": "\u5730\u94c113\u53f7\u7ebf", "station": "\u4e0b\u5357\u8def", "stationNum": "24", "gaodeID": "BV10039788", "isRunning": 1}, "geometry": {"type": "Point", "coordinates": [121.540189, 31.179295]}}, {"type": "Feature", "properties": {"line": "\u5730\u94c113\u53f7\u7ebf", "station": "\u5317\u8521", "stationNum": "25", "gaodeID": "BV10029748", "isRunning": 1}, "geometry": {"type": "Point", "coordinates": [121.552017, 31.180131]}}, {"type": "Feature", "properties": {"line": "\u5730\u94c113\u53f7\u7ebf", "station": "\u9648\u6625\u8def", "stationNum": "26", "gaodeID": "BV10039789", "isRunning": 1}, "geometry": {"type": "Point", "coordinates": [121.558194, 31.175095]}}, {"type": "Feature", "properties": {"line": "\u5730\u94c113\u53f7\u7ebf", "station": "\u83b2\u6eaa\u8def", "stationNum": "27", "gaodeID": "BV10039790", "isRunning": 1}, "geometry": {"type": "Point", "coordinates": [121.566414, 31.16911]}}, {"type": "Feature", "properties": {"line": "\u5730\u94c113\u53f7\u7ebf", "station": "\u534e\u590f\u4e2d\u8def", "stationNum": "28", "gaodeID": "BV10039791", "isRunning": 1}, "geometry": {"type": "Point", "coordinates": [121.581078, 31.174454]}}, {"type": "Feature", "properties": {"line": "\u5730\u94c113\u53f7\u7ebf", "station": "\u4e2d\u79d1\u8def", "stationNum": "29", "gaodeID": "BV10039792", "isRunning": 1}, "geometry": {"type": "Point", "coordinates": [121.602465, 31.178862]}}, {"type": "Feature", "properties": {"line": "\u5730\u94c113\u53f7\u7ebf", "station": "\u5b66\u6797\u8def", "stationNum": "30", "gaodeID": "BV10039793", "isRunning": 1}, "geometry": {"type": "Point", "coordinates": [121.614363, 31.183476]}}, {"type": "Feature", "properties": {"line": "\u5730\u94c113\u53f7\u7ebf", "station": "\u5f20\u6c5f\u8def", "stationNum": "31", "gaodeID": "BV10039794", "isRunning": 1}, "geometry": {"type": "Point", "coordinates": [121.629182, 31.18913]}}, {"type": "Feature", "properties": {"line": "\u5730\u94c113\u53f7\u7ebf\u4e1c\u5ef6\u4f38(\u4e39\u6842\u8def--\u5f20\u6c5f\u8def)", "station": "\u4e39\u6842\u8def", "stationNum": "1", "gaodeID": "BV09079015", "isRunning": 0}, "geometry": {"type": "Point", "coordinates": [121.632282, 31.222713]}}, {"type": "Feature", "properties": {"line": "\u5730\u94c113\u53f7\u7ebf\u4e1c\u5ef6\u4f38(\u4e39\u6842\u8def--\u5f20\u6c5f\u8def)", "station": "\u9ad8\u79d1\u4e2d\u8def", "stationNum": "2", "gaodeID": "BV09079016", "isRunning": 0}, "geometry": {"type": "Point", "coordinates": [121.634318, 31.203909]}}, {"type": "Feature", "properties": {"line": "\u5730\u94c114\u53f7\u7ebf", "station": "\u6842\u6865\u8def", "stationNum": "1", "gaodeID": "BV10039959", "isRunning": 1}, "geometry": {"type": "Point", "coordinates": [121.635087, 31.249419]}}, {"type": "Feature", "properties": {"line": "\u5730\u94c114\u53f7\u7ebf", "station": "\u91d1\u7ca4\u8def", "stationNum": "2", "gaodeID": "BV10039958", "isRunning": 1}, "geometry": {"type": "Point", "coordinates": [121.629016, 31.242092]}}, {"type": "Feature", "properties": {"line": "\u5730\u94c114\u53f7\u7ebf", "station": "\u6d66\u4e1c\u8db3\u7403\u573a", "stationNum": "3", "gaodeID": "BV10039957", "isRunning": 1}, "geometry": {"type": "Point", "coordinates": [121.61543, 31.241645]}},